     2.11           OBSERVATION DATA    G (GPS)             RINEX VERSION / TYPE
teqc  2010Oct21                         20130701 02:00:04UTCPGM / RUN BY / DATE
Linux 2.4.20-8|Pentium IV|gcc -static|Linux|486/DX+         COMMENT
teqc  2010Oct21                         20130701 02:00:04UTCCOMMENT
Project=   Mission=   CDU Serial No.= --PC--                COMMENT
BIT 2 OF LLI FLAGS DATA COLLECTED UNDER A/S CONDITION       COMMENT
Forced Modulo Decimation to 30 seconds                      COMMENT
 SNR is mapped to RINEX snr flag value [0-9]                COMMENT
  L1 & L2: (SN - 14)/4, min = 0, max = 9                    COMMENT
BOLG                                                        MARKER NAME
12771M001                                                   MARKER NUMBER
GEOFISICA BOLOGNA   GEOFISICA BOLOGNA                       OBSERVER / AGENCY
10469               LEICA SR9500        5.04                REC # / TYPE / VERS
9037                LEIAT302+GP     NONE                    ANT # / TYPE
  4467541.9142   897307.2684  4447979.0208                  APPROX POSITION XYZ
        1.1746        0.0000        0.0000                  ANTENNA: DELTA H/E/N
     1     1                                                WAVELENGTH FACT L1/2
     4    C1    L1    P2    L2                              # / TYPES OF OBSERV
    30.0000                                                 INTERVAL
teqc windowed: start @ 2013 Jun 30 00:00:00.000             COMMENT
teqc windowed: delta = 86400.000 sec                        COMMENT
  2013     6    30     0     0    0.0000000     GPS         TIME OF FIRST OBS
                                                            END OF HEADER
 13  6 30  0  0  0.0000000  0  9G19G01G11G23G32G17G20G31G14
  24939818.5274  131059635.12547  24939809.9964  102124365.62547
  20220615.174   106260139.500 8  20220609.518    82800083.125 9
  20999306.0414  110352139.12549  20999296.7394   85988677.75049
  23149864.8974  121653407.37548  23149856.1964   94794835.97248
  20509955.4194  107780626.25048  20509947.5054   83984894.50049
  23031615.005   121031974.000 8  23031606.641    94310592.375 8
  20644357.6164  108486889.12548  20644348.8854   84535239.87549
  23625275.294   124151672.375 7  23625268.489    96741533.403 7
  24138294.6194  126847620.00046  24138286.4494   98842291.12546
 13  6 30  0  0 30.0000000  0  9G19G01G11G23G32G17G20G31G14
  24961276.5214  131172397.27147  24961267.9244  102212232.12647
  20222324.566   106269122.540 8  20222318.977    82807082.948 9
  21012169.7824  110419738.53749  21012160.5144   86041352.63149
  23130647.2074  121552417.85848  23130638.4804   94716142.95048
  20514276.7314  107803334.89548  20514268.8344   84002589.62349
  23019312.816   120967324.997 8  23019304.309    94260216.507 8
  20636234.8594  108444203.74648  20636226.1344   84501978.62949
  23615878.036   124102289.324 7  23615871.174    96703053.280 7
  24156167.0504  126941539.76046  24156158.8144   98915475.28746
 13  6 30  0  1  0.0000000  0  9G19G01G11G23G32G17G20G31G14
  24982705.1374  131285005.03346  24982696.5144  102299978.31047
  20224087.979   106278389.523 8  20224082.428    82814303.987 9
  21025083.1934  110487598.90749  21025073.9264   86094230.83349
  23111438.7954  121451477.09748  23111430.0004   94637487.87348
  20518633.0444  107826227.47448  20518625.1484   84020427.99749
  23007068.516   120902980.890 8  23007059.937    94210078.288 8
  20628145.4084  108401693.45548  20628136.6644   84468853.72649
  23606535.415   124053193.585 7  23606528.576    96664796.964 7
  24174054.2754  127035537.38645  24174045.9804   98988720.11546
 13  6 30  0  1 30.0000000  0  9G19G01G11G23G32G17G20G31G14
  25004103.8004  131397455.39147  25004095.1624  102387601.88147
  20225905.423   106287940.509 8  20225899.945    82821746.290 9
  21038046.0904  110555719.02049  21038036.7854   86147311.44849
  23092239.9304  121350586.50548  23092231.0824   94558871.89148
  20523023.9934  107849302.19548  20523016.1094   84038408.31249
  22994882.614   120838943.605 8  22994874.053    94160179.131 8
  20620089.3814  108359359.12548  20620080.7194   84435865.97749
  23597247.828   124004386.858 7  23597240.950    96626765.815 7
  24191955.7454  127129609.87246  24191947.4174   99062023.31746
 13  6 30  0  2  0.0000000  0  9G19G01G11G23G32G17G20G31G14
  25025530.8354  131510054.96847  25025522.1974  102475341.76047
  20227835.875   106298084.974 8  20227830.355    82829651.058 9
  21051116.8024  110624406.13648  21051107.5314   86200833.84349
  23073109.8864  121250057.32149  23073100.9184   94480537.50448
  20527508.2294  107872866.94948  20527500.3004   84056770.45049
  22982814.320   120775524.170 8  22982805.720    94110761.386 8
  20612125.7964  108317510.08048  20612117.1264   84403256.33349
  23588074.438   123956180.681 6  23588067.620    96589202.623 7
  24209929.7624  127224063.77646  24209921.4084   99135623.80846
 13  6 30  0  2 30.0000000  0  9G19G01G11G23G32G17G20G31G14
  25046985.8504  131622801.58747  25046977.2334  102563196.16847
  20229879.339   106308823.513 8  20229873.837    82838018.774 9
  21064295.0864  110693658.61148  21064285.8924   86254796.77849
  23054049.0064  121149891.59648  23054039.8874   94402486.32848
  20532085.4904  107896920.43048  20532077.5424   84075513.42849
  22970863.918   120712724.570 8  22970855.347    94061826.669 8
  20604254.3834  108276145.77348  20604245.7784   84371024.41549
  23579015.718   123908577.288 7  23579008.964    96552109.130 7
  24227975.9144  127318896.63346  24227967.4104   99209519.48346
 13  6 30  0  3  0.0000000  0  9G19G01G11G23G32G17G20G31G14
  25068409.6644  131735383.86147  25068401.0284  102650922.53147
  20231977.156   106319847.682 8  20231971.648    82846609.021 9
  21077521.9384  110763166.18748  21077512.7524   86308958.49649
  23034998.8934  121049782.57848  23034989.6354   94324479.35648
  20536696.7524  107921152.65448  20536688.7494   84094395.67749
  22958973.101   120650238.218 8  22958964.531    94013136.014 8
  20596416.5704  108234957.78848  20596407.9434   84338929.91849
  23570013.461   123861270.483 7  23570006.748    96515246.746 7
  24246034.7314  127413796.79445  24246026.3204   99283467.69846
 13  6 30  0  3 30.0000000  0  9G19G01G11G23G32G17G20G31G14
  25089831.2004  131847954.16946  25089822.5434  102738639.55047
  20234158.916   106331312.720 9  20234153.392    82855542.836 9
  21090826.4674  110833082.33548  21090817.3804   86363438.60049
  23015989.4544  120949887.36548  23015980.1354   94246639.00648
  20541371.2254  107945717.04748  20541363.1854   84113536.77249
  22947171.859   120588221.958 8  22947163.198    93964811.653 8
  20588641.8234  108194101.15348  20588633.1724   84307093.59249
  23561097.665   123814417.159 7  23561090.809    96478737.778 7
  24264135.3044  127508916.51246  24264127.0244   99357586.86746
 13  6 30  0  4  0.0000000  0  9G19G01G11G23G32G17G20G31G14
  25111250.0064  131960510.44047  25111241.3634  102826345.66647
  20236424.709   106343219.355 9  20236419.118    82864820.730 9
  21104208.5274  110903405.65648  21104199.4554   86418235.96249
  22997020.8824  120850207.34448  22997011.6384   94168966.37048
  20546108.7484  107970612.71448  20546100.6924   84132936.01149
  22935460.389   120526678.143 8  22935451.828    93916855.491 8
  20580930.1744  108153576.35348  20580921.5184   84275515.84849
  23552268.587   123768019.792 7  23552261.584    96442584.018 7
  24282277.4004  127604253.62146  24282269.0814   99431875.49846
 13  6 30  0  4 30.0000000  0  9G19G01G11G23G32G17G20G31G14
  25132665.6854  132073050.40847  25132657.1154  102914039.08847
  20238774.677   106355568.266 9  20238769.035    82874443.249 9
  21117667.8774  110974134.83349  21117658.7724   86473349.61549
  22978093.7744  120750745.09648  22978084.5794   94091463.41448
  20550909.0384  107995838.53148  20550901.0194   84152592.48449
  22923839.175   120465608.752 8  22923830.684    93869268.971 8
  20573281.7124  108113383.66548  20573273.0804   84244196.89649
  23543526.632   123722081.007 7  23543519.590    96406787.637 7
  24300460.3234  127699805.77545  24300452.0674   99506331.65946
 13  6 30  0  5  0.0000000  0  9G19G01G11G23G32G17G20G31G14
  25154077.5704  132185570.56047  25154069.0594  103001717.04647
  20241208.678   106368358.716 9  20241202.971    82884409.811 9
  21131203.9514  111045267.31849  21131194.8304   86528777.50749
  22959208.3624  120651501.70848  22959199.1614   94014130.97348
  20555771.6944  108021392.15148  20555763.6974   84172504.40149
  22912308.484   120405014.750 8  22912300.017    93822052.881 8
  20565696.3244  108073522.24148  20565687.6754   84213136.05549
  23534872.172   123676601.824 7  23534865.061    96371349.351 7
  24318683.5424  127795569.37645  24318675.2534   99580952.62146
 13  6 30  0  5 30.0000000  0  9G19G01G11G23G32G17G20G31G14
  25175456.4244  132297916.75747  25175447.9624  103089259.45547
  20243697.853   106381439.233 8  20243692.111    82894602.421 9
  21144787.5814  111116649.65349  21144778.4394   86584400.11449
  22940336.0394  120552327.41848  22940326.8424   93936852.35548
  20560667.5774  108047120.37648  20560659.6014   84192552.37149
  22900839.644   120344746.212 7  22900831.305    93775090.422 8
  20558145.1634  108033840.31448  20558136.4234   84182215.06649
  23526276.635   123631432.533 7  23526269.500    96336152.590 7
  24336917.5424  127891389.75745  24336909.2734   99655617.82246
 13  6 30  0  6  0.0000000  0  9G19G01G11G23G32G17G20G31G14
  25196860.0294  132410392.96447  25196851.5644  103176903.19047
  20246300.612   106395116.825 8  20246294.855    82905260.287 9
  21158476.8174  111188586.82349  21158467.6224   86640455.03449
  22921535.5674  120453530.52448  22921526.3714   93859867.82348
  20565654.8684  108073328.64048  20565646.8684   84212974.39449
  22889491.495   120285111.916 8  22889483.219    93728622.159 8
  20550686.5074  107994644.74648  20550677.7324   84151673.09949
  23517798.837   123586881.970 7  23517791.695    96301437.960 7
  24355220.2664  127987571.34245  24355211.9674   99730564.48546
 13  6 30  0  6 30.0000000  0  9G19G01G11G23G32G17G20G31G14
  25218258.4834  132522842.03447  25218250.0294  103264525.76447
  20248987.564   106409236.791 8  20248981.811    82916262.859 9
  21172241.7874  111260922.22549  21172232.6014   86696820.25749
  22902777.8184  120354958.01248  22902768.6024   93783058.14348
  20570703.7434  108099860.59648  20570695.7454   84233648.64149
  22878234.976   120225958.760 8  22878226.691    93682528.809 8
  20543290.8464  107955780.66348  20543282.0844   84121389.40449
  23509409.747   123542797.315 7  23509402.591    96267086.356 7
  24373561.6774  128083956.54545  24373553.4694   99805669.80746
 13  6 30  0  7  0.0000000  0  9G19G01G11G23G32G17G20G31G14
  25239651.7404  132635264.36046  25239643.3704  103352127.48147
  20251759.307   106423802.334 9  20251753.557    82927612.635 9
  21186082.7364  111333656.78149  21186073.5184   86753496.49749
  22884063.6474  120256614.69248  22884054.4394   93706427.02548
  20575814.4544  108126717.75148  20575806.4964   84254576.31149
  22867070.822   120167290.981 8  22867062.578    93636813.695 8
  20535958.8044  107917250.95748  20535950.0974   84091366.26949
  23501110.206   123499183.557 6  23501103.091    96233101.667 7
  24391941.7894  128180545.24946  24391933.7174   99880933.72546
 13  6 30  0  7 30.0000000  0  9G19G01G11G23G32G17G20G31G14
  25261009.8674  132747502.00947  25261001.6044  103439585.31447
  20254586.303   106438658.362 8  20254580.544    82939188.736 9
  21199969.9094  111406634.11949  21199960.6754   86810361.96249
  22865363.8614  120158347.15548  22865354.6934   93629855.00248
  20580957.2234  108153743.49648  20580949.2944   84275635.33449
  22855970.045   120108955.695 8  22855961.713    93591357.631 8
  20528660.8974  107878900.26248  20528652.1764   84061482.62949
  23492871.148   123455887.516 7  23492864.070    96199364.566 7
  24410330.7994  128277179.58546  24410322.6684   99956233.21746
 13  6 30  0  8  0.0000000  0  9G19G01G11G23G32G17G20G31G14
  25282390.8884  132859860.16147  25282382.7594  103527137.07147
  20257527.200   106454112.941 8  20257521.485    82951231.274 9
  21213961.4414  111480159.98849  21213952.2134   86867654.84649
  22846737.4194  120060464.97848  22846728.2764   93553583.25048
  20586190.4534  108181244.18248  20586182.4854   84297064.44049
  22844991.380   120051262.354 8  22844982.949    93546401.802 8
  20521455.7104  107841036.56248  20521446.9444   84031978.46949
  23484751.520   123413218.710 7  23484744.371    96166116.194 7
  24428786.5974  128374164.58646  24428778.3714  100031805.85846
 13  6 30  0  8 30.0000000  0  9G19G01G11G23G32G17G20G31G14
  25303794.6114  132972337.36047  25303786.5274  103614781.61147
  20260582.174   106470167.126 8  20260576.490    82963741.009 9
  21228057.1204  111554233.40849  21228047.9214   86925374.35149
  22828184.8344  119962970.80148  22828175.7204   93477613.82548
  20591513.9674  108209219.31348  20591505.9774   84318863.24849
  22834135.306   119994213.488 7  22834126.820    93501948.146 8
  20514343.3374  107803660.91548  20514334.5984   84002854.60349
  23476751.902   123371179.996 7  23476744.583    96133358.835 7
  24447308.6804  128471498.85245  24447300.5144  100107650.75046
 13  6 30  0  9  0.0000000  0  9G19G01G11G23G32G17G20G31G14
  25325162.1194  133084624.05646  25325154.1014  103702277.69147
  20263692.848   106486514.018 8  20263687.215    82976478.842 9
  21242198.2744  111628545.60949  21242189.0944   86983279.96449
  22809648.0694  119865559.50548  22809638.9394   93401708.98948
  20596869.0174  108237360.28948  20596861.0114   84340791.28049
  22823343.786   119937503.605 8  22823335.236    93457758.663 8
  20507265.3204  107766465.81048  20507256.5754   83973871.40849
  23468814.088   123329466.499 7  23468806.652    96100854.898 7
  24465838.1654  128568872.45145  24465830.1544  100183526.21646
 13  6 30  0  9 30.0000000  0  9G19G01G11G23G32G17G20G31G14
  25346492.6084  133196716.28246  25346484.6384  103789622.23647
  20266858.944   106503152.027 8  20266853.350    82989443.513 9
  21256384.2204  111703093.01249  21256374.9754   87041368.83949
  22791127.0904  119768231.10148  22791117.9384   93325868.71248
  20602255.0494  108265664.01348  20602247.0154   84362846.12849
  22812616.864   119881133.127 8  22812608.267    93413833.644 8
  20500221.4234  107729449.87748  20500212.6674   83945027.84249
  23460938.168   123288078.199 7  23460930.631    96068604.344 7
  24484374.2324  128666280.82945  24484366.4554  100259428.77246
 13  6 30  0 10  0.0000000  0  9G19G01G11G23G32G17G20G31G14
  25367844.6654  133308921.72546  25367836.6994  103877054.98447
  20270139.577   106520391.867 9  20270133.963    83002877.135 9
  21270673.7444  111778184.65349  21270664.4484   87099881.77849
  22772681.2894  119671297.95048  22772672.1284   93250336.45548
  20607730.8284  108294439.67848  20607722.8164   84385268.74249
  22802013.855   119825413.874 8  22802005.248    93370416.051 8
  20493270.6544  107692923.52748  20493261.9244   83916565.77649
  23453183.510   123247327.633 6  23453175.961    96036850.768 7
  24502975.7214  128764032.06046  24502967.9854  100335598.61646
 13  6 30  0 10 30.0000000  0  9G19G01G11G23G32G17G20G31G14
  25389217.6694  133421237.62146  25389209.7584  103964573.83947
  20273534.723   106538233.607 8  20273529.114    83016779.773 9
  21285066.4014  111853818.32449  21285057.0714   87158817.10349
  22754311.0184  119574761.77348  22754301.8224   93175113.49748
  20613296.1154  108323685.64848  20613288.1394   84408057.81249
  22791535.120   119770347.690 8  22791526.462    93327507.364 8
  20486412.9834  107656886.54048  20486404.3004   83888485.01549
  23445550.669   123207216.656 7  23445543.056    96005595.549 7
  24521642.1284  128862123.19546  24521634.1794  100412033.24646
 13  6 30  0 11  0.0000000  0  9G19G01G11G23G32G17G20G31G14
  25410552.3624  133533351.62746  25410544.3884  104051935.32947
  20276985.442   106556367.316 9  20276979.813    83030909.934 9
  21299502.8634  111929682.19349  21299493.4924   87217931.77249
  22735957.6564  119478314.32948  22735948.4184   93099959.68948
  20618891.7214  108353090.69348  20618883.7294   84430970.81449
  22781121.980   119715626.269 8  22781113.312    93284867.315 8
  20479589.5114  107621028.88648  20479580.8024   83860543.99149
  23437980.874   123167437.180 6  23437973.178    95974598.601 7
  24540313.6214  128960241.92545  24540305.5284  100488489.42246
 13  6 30  0 11 30.0000000  0  9G19G01G11G23G32G17G20G31G14
  25431877.6984  133645416.64646  25431869.7194  104139258.68447
  20280521.321   106574948.428 9  20280515.680    83045388.719 9
  21314012.3364  112005929.86549  21314002.9574   87277345.54249
  22717650.9764  119382112.57748  22717641.7584   93024997.34948
  20624546.8814  108382808.50848  20624538.8124   84454127.56149
  22770804.267   119661406.446 8  22770795.577    93242618.105 8
  20472829.7074  107585505.93948  20472820.9804   83832863.77849
  23430503.933   123128146.214 7  23430496.366    95943982.367 7
  24559019.3394  129058540.57345  24559011.1764  100565085.67746
 13  6 30  0 12  0.0000000  0  9G19G01G11G23G32G17G20G31G14
  25453193.2614  133757430.87746  25453185.3994  104226542.51847
  20284142.543   106593978.012 8  20284136.873    83060216.961 9
  21328594.6754  112082560.51049  21328585.2994   87337057.73249
  22699391.6054  119286159.24948  22699382.3674   92950228.57248
  20630261.4394  108412838.64848  20630253.3584   84477527.67049
  22760582.436   119607690.801 8  22760573.832    93200761.769 8
  20466133.7984  107550318.76148  20466125.0414   83805445.21249
  23423120.441   123089346.453 7  23423113.022    95913748.870 7
  24577758.9004  129157017.25646  24577750.7044  100641820.72446
 13  6 30  0 12 30.0000000  0  9G19G01G11G23G32G17G20G31G14
  25474498.8764  133869392.76346  25474491.0924  104313785.58146
  20287849.254   106613456.910 8  20287843.618    83075395.336 9
  21343249.6104  112159572.84249  21343240.2554   87397067.32749
  22681179.9494  119190456.85348  22681170.7334   92875655.34948
  20636035.3054  108443180.52148  20636027.2264   84501170.69449
  22750457.068   119554482.008 8  22750448.534    93159300.364 8
  20459501.8924  107515467.98848  20459493.1424   83778288.75949
  23415830.984   123051040.472 7  23415823.608    95883900.128 7
  24596531.9614  129255670.41945  24596523.7794  100718693.26546
 13  6 30  0 13  0.0000000  0  9G19G01G11G23G32G17G20G31G14
  25495764.5644  133981144.83046  25495756.8104  104400865.14046
  20291611.924   106633230.064 8  20291606.340    83090802.994 9
  21357947.3674  112236810.13649  21357938.0134   87457252.18949
  22662986.9624  119094852.24448  22662977.6984   92801158.29048
  20641838.6954  108473677.47948  20641830.5724   84524934.55149
  22740398.966   119501626.322 8  22740390.434    93118114.125 8
  20452904.4834  107480798.43148  20452895.7014   83751273.52649
  23408606.295   123013075.163 7  23408599.034    95854316.826 7
  24615308.5304  129354342.02245  24615300.3294  100795580.28546
 13  6 30  0 13 30.0000000  0  9G19G01G11G23G32G17G20G31G14
  25517048.6764  134092993.96945  25517040.9444  104488020.29946
  20295489.494   106653607.141 8  20295484.001    83106681.243 9
  21372746.4524  112314579.97849  21372737.1654   87517852.05349
  22644871.7984  118999656.60648  22644862.4744   92726979.91248
  20647730.2744  108504637.80948  20647722.1264   84549059.48249
  22730467.363   119449434.959 8  22730458.784    93077445.553 8
  20446400.4454  107446619.73048  20446391.7044   83724640.80849
  23401505.741   122975761.811 7  23401498.528    95825241.569 7
  24634147.2394  129453339.22746  24634138.9484  100872720.97046
 13  6 30  0 14  0.0000000  0  9G19G01G11G23G32G17G20G31G14
  25538321.3604  134204783.30446  25538313.6774  104575128.83346
  20299452.634   106674433.834 8  20299447.202    83122909.825 9
  21387617.1484  112392726.19949  21387607.9024   87578745.17449
  22626805.3854  118904717.21548  22626796.0284   92653001.20948
  20653680.2954  108535905.62948  20653672.2074   84573424.00649
  22720633.036   119397755.100 8  22720624.449    93037175.535 8
  20439960.4284  107412777.27648  20439951.6824   83698270.06049
  23394500.110   122938947.600 7  23394492.935    95796555.212 7
  24653017.8114  129552504.94145  24653009.6044  100949992.96146
 13  6 30  0 14 30.0000000  0  9G19G01G11G23G32G17G20G31G14
  25559582.1234  134316509.80846  25559574.4894  104662188.43347
  20303501.285   106695709.576 8  20303495.854    83139488.317 9
  21402558.9394  112471246.34149  21402549.7704   87639929.68749
  22608788.0084  118810035.32148  22608778.5684   92579223.16248
  20659688.4734  108567479.00648  20659680.4274   84598026.66349
  22710896.191   119346587.506 8  22710887.567    92997304.695 8
  20433584.3294  107379270.52548  20433575.5504   83672160.92549
  23387589.808   122902633.905 7  23387582.615    95768258.858 7
  24671919.7504  129651835.92645  24671911.6894  101027393.78045
 13  6 30  0 15  0.0000000  0  9G19G01G11G23G32G17G20G31G14
  25580801.5644  134428018.84646  25580793.9074  104749078.58747
  20307606.407   106717282.201 8  20307600.986    83156298.146 9
  21417542.6244  112549986.20349  21417533.4644   87701285.41049
  22590791.0254  118715460.72448  22590781.5394   92505528.71348
  20665725.6314  108599204.30248  20665717.5334   84622747.66549
  22701228.138   119295781.856 8  22701219.572    92957715.869 8
  20427243.1054  107345947.16548  20427234.3014   83646194.69549
  23380746.098   122866670.150 7  23380738.859    95740235.255 7
  24690823.7154  129751177.37245  24690815.7794  101104802.61846
 13  6 30  0 15 30.0000000  0  9G19G01G11G23G32G17G20G31G14
  25602067.0064  134539769.43346  25602059.2914  104836156.96847
  20311855.840   106739613.186 8  20311850.412    83173698.896 9
  21432655.6194  112629405.33748  21432646.4394   87763170.45249
  22572902.5164  118621456.22448  22572893.0314   92432278.51248
  20671879.2094  108631541.57048  20671871.1084   84647945.52749
  22691717.069   119245800.918 8  22691708.486    92918769.688 8
  20421024.5814  107313268.79248  20421015.8024   83620731.04449
  23374057.099   122831519.472 7  23374049.837    95712845.142 7
  24709816.9214  129850988.21945  24709809.1134  101182577.27146
 13  6 30  0 16  0.0000000  0  9G19G01G11G23G32G17G20G31G14
  25623290.0244  134651296.52446  25623282.1954  104923061.21447
  20316161.566   106762239.739 8  20316156.085    83191329.971 9
  21447809.3824  112709039.21548  21447800.2674   87825222.78349
  22555034.7664  118527560.81448  22555025.2364   92359113.31648
  20678060.9184  108664026.48348  20678052.7854   84673258.45949
  22682275.221   119196183.918 8  22682266.654    92880107.090 8
  20414840.7294  107280772.49048  20414831.9194   83595409.26549
  23367435.089   122796720.766 7  23367427.848    95685729.331 7
  24728810.8764  129950802.93545  24728803.1834  101260355.00046
 13  6 30  0 16 30.0000000  0  9G19G01G11G23G32G17G20G31G14
  25644470.1694  134762599.06046  25644462.3394  105009790.54946
  20320523.791   106785163.575 8  20320518.347    83209192.705 9
  21463004.0484  112788887.34949  21462994.8844   87887442.07649
  22537188.4774  118433778.12148  22537178.8894   92286035.94548
  20684270.7754  108696659.37548  20684262.6174   84698686.68349
  22672903.267   119146933.656 8  22672894.638    92841730.248 8
  20408691.8254  107248459.59648  20408682.9834   83570230.40049
  23360880.779   122762277.570 7  23360873.489    95658890.510 7
  24747805.5924  130050620.65545  24747797.8744  101338135.08346
 13  6 30  0 17  0.0000000  0  9G19G01G11G23G32G17G20G31G14
  25665665.7374  134873982.64846  25665657.8894  105096582.97046
  20325001.193   106808692.416 8  20324995.724    83227526.877 9
  21478297.7094  112869255.89049  21478288.5064   87950066.90049
  22519422.5184  118340417.43949  22519412.8124   92213287.39248
  20690567.1124  108729746.66548  20690558.9514   84724468.99349
  22663659.821   119098359.267 8  22663651.242    92803880.090 8
  20402636.4334  107216638.23048  20402627.5644   83545434.53649
  23354452.830   122728498.907 7  23354445.596    95632569.551 7
  24766858.8494  130150746.19445  24766851.1814  101416155.06546
 13  6 30  0 17 30.0000000  0  9G19G01G11G23G32G17G20G31G14
  25686876.1944  134985444.60245  25686868.4184  105183436.60246
  20329593.692   106832826.036 8  20329588.169    83246332.295 9
  21493689.9634  112950142.60949  21493680.7314   88013095.49149
  22501737.1694  118247480.36349  22501727.4054   92140868.91949
  20696949.5314  108763286.69048  20696941.3874   84750604.06249
  22654545.275   119050462.194 8  22654536.718    92766557.699 8
  20396674.4434  107185307.95048  20396665.5974   83521021.34049
  23348151.707   122695386.533 7  23348144.459    95606767.761 7
  24785970.2064  130251177.18245  24785962.5804  101494412.92346
 13  6 30  0 18  0.0000000  0  9G19G01G11G23G32G17G20G31G14
  25708042.4794  135096674.30346  25708034.6004  105270108.95746
  20334242.639   106857256.544 8  20334237.110    83265369.057 9
  21509121.8644  113031237.79448  21509112.6564   88076286.51649
  22484074.1064  118154660.52948  22484064.3124   92068541.81848
  20703359.2974  108796970.17448  20703351.1724   84776850.93749
  22645501.275   119002935.777 8  22645492.725    92729524.122 8
  20390747.3564  107154161.08848  20390738.5364   83496751.07849
  23341919.181   122662633.953 7  23341911.796    95581246.301 7
  24805080.5964  130351602.95645  24805072.9984  101572666.76446
 13  6 30  0 18 30.0000000  0  9G01G11G23G32G17G20G31G13G14
  20338977.632   106882139.161 8  20338972.096    83284758.098 9
  21524622.6034  113112694.47949  21524613.3854   88139759.22349
  22466463.1974  118062115.14348  22466453.4964   91996428.59848
  20709825.6324  108830951.05548  20709817.4894   84803329.55049
  22636557.781   118955937.278 8  22636549.225    92692901.923 8
  20384884.7024  107123352.75548  20384875.8774   83472744.59549
  23335784.939   122630398.291 7  23335777.474    95556127.649 8
  24826744.0474  130465418.16044
  24824219.1374  130452176.23445  24824211.5284  101651035.53546
 13  6 30  0 19  0.0000000  0  9G01G11G23G32G17G20G31G13G14
  20343798.475   106907472.800 9  20343792.932    83304498.613 9
  21540191.6074  113194509.95849  21540182.3884   88203511.50049
  22448904.6874  117969844.98448  22448895.0364   91924529.82448
  20716348.1224  108865226.84848  20716339.9514   84830037.94249
  22627714.654   118909466.706 8  22627706.187    92656691.098 8
  20379086.2364  107092881.61248  20379077.4164   83449000.86649
  23329749.036   122598679.781 7  23329741.666    95531412.026 8
  24804537.3914  130348717.20845
  24843385.0764  130552893.36045  24843377.3104  101729516.58246
 13  6 30  0 19 30.0000000  0  9G01G11G23G32G17G20G31G13G14
  20348704.691   106933255.266 8  20348699.188    83324588.848 9
  21555828.0814  113276679.99749  21555818.8644   88267540.07049
  22431398.4014  117877849.33448  22431388.8324   91852844.97148
  20722926.1174  108899794.07048  20722917.8944   84856973.45549
  22618971.882   118863523.189 8  22618963.427    92620890.958 8
  20373351.6174  107062745.86348  20373342.7454   83425518.47149
  23323811.560   122567477.821 7  23323804.106    95507098.900 8
  24782338.3144  130232060.52045
  24862577.3994  130653749.51245  24862569.5484  101808105.71546
 13  6 30  0 20  0.0000000  0  9G01G11G23G32G17G20G31G13G14
  20353696.985   106959490.134 8  20353691.519    83345031.609 9
  21571532.3064  113359206.37949  21571523.1254   88331846.33249
  22413945.4424  117786133.66248  22413935.8894   91781378.27548
  20729559.8874  108934654.89348  20729551.6554   84884137.72249
  22610330.346   118818111.924 8  22610321.934    92585505.551 8
  20367681.3824  107032948.70148  20367672.5384   83402299.92149
  23317973.313   122536797.689 7  23317965.862    95483192.390 7
  24760148.4194  130115454.02645
  24881796.5424  130754746.22445  24881788.5654  101886804.56446
 13  6 30  0 20 30.0000000  0  9G01G11G23G32G17G20G31G13G14
  20358746.039   106986023.216 8  20358740.597    83365706.741 9
  21587274.7064  113441933.50248  21587265.5644   88396308.98849
  22396516.7524  117694545.46548  22396507.1884   91710010.90648
  20736219.9674  108969653.84949  20736211.7684   84911409.64749
  22601761.073   118773080.466 8  22601752.766    92550416.113 8
  20362046.3124  107003336.20648  20362037.4574   83379225.27049
  23312205.300   122506486.892 7  23312197.859    95459573.632 7
  24737937.8934  129998739.17245
  24901012.5604  130855726.70645  24901004.5054  101965490.68946
 13  6 30  0 21  0.0000000  0  9G01G11G23G32G17G20G31G13G14
  20363910.331   107013161.691 8  20363904.873    83386853.587 9
  21603113.3044  113525165.89549  21603104.1884   88461165.38049
  22379171.1244  117603393.95148  22379161.5524   91638983.80248
  20742964.6394  109005096.90349  20742956.3724   84939027.61249
  22593322.825   118728737.111 8  22593314.554    92515862.858 8
  20356504.7934  106974215.51648  20356495.9504   83356533.84949
  23306566.379   122476854.161 7  23306558.855    95436483.228 7
  24715770.1304  129882237.48045
  24920283.5194  130956995.52945  24920275.3304  102044401.55646
 13  6 30  0 21 30.0000000  0  9G01G11G23G32G17G20G31G13G14
  20369160.608   107040752.335 8  20369155.201    83408352.803 9
  21619018.6144  113608748.67449  21619009.4594   88526294.80549
  22361879.7694  117512527.51948  22361870.1634   91568178.83148
  20749764.3624  109040829.50049  20749756.0454   84966871.19849
  22584986.643   118684930.116 8  22584978.393    92481727.549 8
  20351027.6864  106945433.31248  20351018.8384   83334106.17949
  23301027.555   122447747.757 7  23301019.939    95413802.980 7
  24693611.2944  129765791.63245
  24939579.5734  131058396.78945  24939571.3604  102123415.57646
 13  6 30  0 22  0.0000000  0  9G01G11G23G32G17G20G31G13G14
  20374497.073   107068795.711 8  20374491.662    83430204.779 9
  21634990.3594  113692680.57649  21634981.1904   88591696.24849
  22344643.0974  117421948.25748  22344633.4194   91497597.62048
  20756619.0704  109076850.98148  20756610.7334   84994939.87549
  22576752.914   118641661.514 8  22576744.635    92448011.750 8
  20345615.1914  106916990.58248  20345606.3684   83311943.02049
  23295589.295   122419169.821 7  23295581.609    95391534.489 7
  24671463.6764  129649404.24045
  24958900.4094  131159928.77945  24958892.2374  102202531.33845
 13  6 30  0 22 30.0000000  0  9G01G11G23G32G17G20G31G13G14
  20379919.726   107097291.944 8  20379914.345    83452409.636 9
  21651028.2364  113776959.99749  21651019.0414   88657368.50349
  22327461.5064  117331658.38748  22327451.7664   91427241.93848
  20763528.5004  109113160.22248  20763520.1234   85023232.79649
  22568621.936   118598932.939 8  22568613.627    92414716.754 8
  20340267.2504  106888887.15248  20340258.4584   83290044.28249
  23290251.954   122391121.967 7  23290244.261    95369679.132 7
  24649327.3914  129533077.84245
  24978245.7264  131261589.42045  24978237.6114  102281747.59646
 13  6 30  0 23  0.0000000  0  9G01G11G23G32G17G20G31G13G14
  20385428.670   107126241.954 8  20385423.333    83474968.084 9
  21667132.1114  113861586.05749  21667122.8754   88723310.88749
  22310335.5114  117241660.80048  22310325.7274   91357113.98248
  20770492.6044  109149756.89648  20770484.2534   85051749.68449
  22560594.153   118556746.776 8  22560585.854    92381844.428 8
  20334984.1374  106861124.33048  20334975.3694   83268410.91549
  23285015.958   122363606.933 7  23285008.204    95348238.854 7
  24627203.2724  129416815.37245
  24997615.3224  131363377.21045  24997607.1934  102361062.73346
 13  6 30  0 23 30.0000000  0  9G01G11G23G32G17G20G31G13G14
  20390994.402   107155490.198 8  20390989.113    83497758.899 9
  21683271.9904  113946401.31849  21683262.7134   88789400.70249
  22293235.8054  117151801.36348  22293226.0134   91287093.69849
  20777481.5734  109186484.30248  20777473.2624   85080368.44349
  22552640.293   118514949.025 8  22552632.025    92349274.766 8
  20329736.2274  106833546.43948  20329727.4554   83246921.64849
  23279851.956   122336470.355 7  23279844.245    95327093.552 7
  24605062.3044  129300463.36445
  25016978.9714  131465134.05745  25016970.8524  102440353.86845
 13  6 30  0 24  0.0000000  0  9G01G11G23G32G17G20G31G13G14
  20396675.700   107185345.684 8  20396670.395    83521022.922 9
  21699506.2914  114031712.77349  21699497.0014   88855877.14649
  22276221.5914  117062391.31448  22276211.8284   91217423.58049
  20784553.9824  109223650.12348  20784545.6864   85109328.83949
  22544819.402   118473849.903 8  22544811.157    92317249.494 8
  20324582.3514  106806462.76548  20324573.5974   83225817.52549
  23274819.122   122310023.013 7  23274811.484    95306485.300 7
  24582963.3864  129184332.64145
  25036395.1154  131567166.95945  25036386.9884  102519860.07545
 13  6 30  0 24 30.0000000  0  9G01G11G23G32G17G20G31G13G14
  20402443.182   107215654.069 8  20402437.889    83544639.848 9
  21715805.2814  114117364.22949  21715795.9864   88922618.51749
  22259263.7744  116973277.63748  22259254.0504   91147984.44049
  20791680.2714  109261098.96149  20791671.9634   85138509.74949
  22537102.419   118433296.633 8  22537094.148    92285649.570 8
  20319493.1174  106779719.03148  20319484.4154   83204978.30049
  23269888.340   122284111.950 7  23269880.781    95286294.896 7
  24560877.5444  129068271.38145
  25055833.8994  131669318.95945  25055825.7474  102599459.16945
 13  6 30  0 25  0.0000000  0  9G01G11G23G32G17G20G31G13G14
  20408326.142   107246569.669 8  20408320.913    83568729.910 9
  21732198.0264  114203508.31049  21732188.6734   88989743.76549
  22242392.1784  116884616.80248  22242382.4494   91078898.11749
  20798889.5354  109298983.77448  20798881.2204   85168030.39149
  22529518.810   118393444.563 8  22529510.550    92254596.004 8
  20314497.9464  106753469.48547  20314489.2664   83184524.12549
  23265089.286   122258893.067 7  23265081.744    95266643.891 7
  24538834.5944  128952435.96245
  25075324.2664  131771742.15544
 13  6 30  0 25 30.0000000  0  8G01G11G23G32G17G20G31G13
  20414265.875   107277783.114 8  20414260.639    83593052.092 9
  21748625.2894  114289833.91349  21748615.9154   89057010.45349
  22225548.2094  116796101.20849  22225538.4394   91009924.96149
  20806122.7004  109336994.25148  20806114.3734   85197648.94249
  22522010.098   118353986.137 8  22522001.873    92223849.228 8
  20309537.9784  106727405.11447  20309529.3704   83164214.24448
  23260363.386   122234058.481 7  23260355.755    95247292.258 7
  24516776.4204  128836519.34845
 13  6 30  0 26  0.0000000  0  8G01G11G23G32G17G20G31G13
  20420291.749   107309449.418 9  20420286.550    83617727.128 9
  21765116.2814  114376494.22349  21765106.8514   89124537.95449
  22208761.7164  116707887.65649  22208751.9104   90941187.18049
  20813409.0824  109375284.13348  20813400.7134   85227485.22249
  22514606.027   118315077.732 8  22514597.850    92193530.988 8
  20304642.8544  106701681.12248  20304634.2184   83144169.60249
  23255740.336   122209764.815 7  23255732.700    95228362.184 7
  24494732.6114  128720678.60245
 13  6 30  0 26 30.0000000  0  8G01G11G23G32G17G20G31G13
  20426374.620   107341414.999 8  20426369.386    83642635.390 9
  21781641.2914  114463333.54949  21781631.8654   89192204.93649
  22192003.8264  116619824.59949  22191994.0044   90872566.66849
  20820719.2054  109413698.84048  20820710.7914   85257418.77149
  22507277.705   118276566.952 8  22507269.429    92163522.579 8
  20299783.2844  106676143.84748  20299774.5964   83124270.45049
  23251191.300   122185859.717 7  23251183.599    95209734.875 7
  24472673.1704  128604766.51845
 13  6 30  0 27  0.0000000  0  9G01G11G23G32G17G20G31G13G14
  20432572.798   107373986.894 8  20432567.568    83668016.096 9
  21798258.5094  114550657.49149  21798249.0994   89260249.54249
  22175333.3394  116532220.72349  22175323.4904   90804303.95349
  20828111.2444  109452544.14349  20828102.7784   85287687.84949
  22500083.681   118238762.413 8  22500075.399    92134064.542 8
  20295017.7304  106651100.69348  20295009.0134   83104756.30949
  23246774.977   122162651.910 7  23246767.200    95191650.897 7
  24450659.5434  128489084.06846  24450654.0164  100121338.40646
  25153351.6634  132181746.45345
 13  6 30  0 27 30.0000000  0  9G01G11G23G32G17G20G31G13G14
  20438857.174   107407011.325 9  20438851.890    83693749.407 9
  21814938.3564  114638310.55449  21814928.9824   89328550.62449
  22158721.3774  116444924.21149  22158711.4334   90736280.72848
  20835555.7194  109491665.25148  20835547.2944   85318171.83449
  22492995.145   118201511.721 8  22492986.803    92105038.053 8
  20290316.9774  106626397.81948  20290308.1714   83085507.33349
  23242462.329   122139988.977 7  23242454.522    95173991.575 7
  24428661.2754  128373484.07246  24428656.7024  100031260.64446
  25172917.7774  132284564.57845  25172909.5084  103078852.22346
 13  6 30  0 28  0.0000000  0  9G01G11G23G32G17G20G31G13G14
  20445256.970   107440642.417 8  20445251.662    83719955.466 9
  21831709.7364  114726444.81649  21831700.3984   89397226.64649
  22142197.5314  116358090.75549  22142187.4784   90668618.33649
  20843081.8324  109531215.24149  20843073.4064   85348990.00549
  22486041.502   118164970.017 8  22486033.121    92076564.012 8
  20285710.2944  106602189.47348  20285701.4534   83066643.71849
  23238282.941   122118026.582 7  23238275.105    95156878.064 7
  24406708.8014  128258122.67046  24406704.1754   99941368.84346
  25192532.5844  132387639.83345  25192524.0384  103159170.56746
 13  6 30  0 28 30.0000000  0  9G01G11G23G32G17G20G31G13G14
  20451713.666   107474572.333 8  20451708.310    83746394.358 9
  21848513.7754  114814750.51048  21848504.4084   89466036.25649
  22125703.5904  116271414.63448  22125693.4814   90601078.54948
  20850630.7724  109570885.18448  20850622.3374   85379901.67549
  22479164.512   118128831.126 8  22479156.092    92048403.854 8
  20281139.1924  106578168.29548  20281130.3634   83047925.93049
  23234178.560   122096458.230 7  23234170.747    95140071.590 7
  24384743.7104  128142694.52846  24384738.7944   99851425.02947
  25212137.0154  132490662.50545  25212128.5134  103239448.11746
 13  6 30  0 29  0.0000000  0  9G01G11G23G32G17G20G31G13G14
  20458256.342   107508954.140 8  20458250.936    83773185.382 9
  21865379.2364  114903379.29348  21865369.9144   89535097.62048
  22109269.0364  116185050.90748  22109258.9484   90533782.19848
  20858231.4554  109610827.10948  20858223.0164   85411025.25149
  22472393.401   118093249.322 8  22472385.095    92020677.816 8
  20276632.8744  106554487.62648  20276624.0554   83029473.47949
  23230178.618   122075438.329 7  23230170.743    95123692.492 7
  24362795.5634  128027354.92446  24362790.3044   99761550.19447
  25231760.1504  132593783.15045  25231751.8014  103319802.01245
 13  6 30  0 29 30.0000000  0  9G01G11G23G32G17G20G31G13G14
  20464885.265   107543789.364 9  20464879.870    83800329.697 9
  21882306.0804  114992330.77348  21882296.8534   89604410.42148
  22092894.5494  116099002.83448  22092884.4864   90466731.82448
  20865883.9384  109651041.43048  20865875.5534   85442361.10749
  22465728.999   118058227.468 8  22465720.630    91993388.072 8
  20272191.7824  106531149.34048  20272182.9464   83011287.81849
  23226283.608   122054969.848 7  23226275.674    95107743.087 7
  24340864.7564  127912107.62746  24340859.4504   99671747.32647
  25251401.9404  132697001.57745  25251393.5694  103400231.95545
 13  6 30  0 30  0.0000000  0  9G01G11G23G32G17G20G31G13G14
  20471600.271   107579076.773 8  20471594.870    83827826.371 9
  21899293.7554  115081601.85548  21899284.5894   89673972.29649
  22076580.2834  116013271.22549  22076570.2574   90399928.03248
  20873587.8814  109691525.98148  20873579.5054   85473907.50649
  22459171.130   118023765.883 8  22459162.813    91966534.908 8
  20267815.5604  106508152.01348  20267806.6924   82993367.85249
  23222493.656   122035053.268 7  23222485.673    95092223.726 7
  24318951.6624  127796953.66547  24318946.3164   99582017.14247
  25271061.5734  132800313.95745  25271053.3934  103480735.15045
 13  6 30  0 30 30.0000000  0  9G01G11G23G32G17G20G31G13G14
  20478401.383   107614816.734 9  20478395.974    83855675.696 9
  21916341.9564  115171191.13348  21916332.8594   89743782.11348
  22060326.6484  115927858.04849  22060316.6274   90333372.38449
  20881343.1084  109732280.10448  20881334.7584   85505663.97049
  22452720.109   117989865.977 8  22452711.881    91940119.417 8
  20263504.2964  106485496.17048  20263495.4374   82975713.98149
  23218808.997   122015690.192 7  23218800.959    95077135.627 7
  24297056.9024  127681895.92947  24297051.4614   99492361.93547
  25290739.0124  132903718.84545  25290730.7104  103561310.41145
 13  6 30  0 31  0.0000000  0  9G01G11G23G32G17G20G31G13G14
  20485288.588   107651009.052 9  20485283.157    83883877.494 9
  21933450.3724  115261096.83948  21933441.3694   89813838.47448
  22044133.9154  115842764.65949  22044123.8744   90267065.89449
  20889149.4274  109773302.64648  20889141.1224   85537629.60149
  22446376.361   117956529.041 8  22446368.061    91914142.599 8
  20259258.0434  106463182.08148  20259249.1644   82958326.39349
  23215229.819   121996881.608 7  23215221.752    95062479.621 7
  24275180.7274  127566936.28847  24275175.2834   99402783.20747
  25310435.0964  133007229.09245
 13  6 30  0 31 30.0000000  0  8G01G11G23G32G17G20G31G13
  20492232.490   107687499.130 9  20492226.989    83912311.326 9
  21950589.2424  115351162.39548  21950580.2564   89884019.41748
  22027973.1264  115757839.14349  22027963.0084   90200890.22349
  20896977.1994  109814437.92948  20896968.9074   85569683.07149
  22440110.583   117923601.845 8  22440102.196    91888485.052 9
  20255047.5324  106441055.57348  20255038.6034   82941084.97249
  23211727.018   121978474.515 7  23211718.956    95048136.445 8
  24253294.2954  127451922.62547  24253288.8534   99313162.36847
 13  6 30  0 32  0.0000000  0  8G01G11G23G32G17G20G31G13
  20499291.663   107724595.272 9  20499286.153    83941217.423 9
  21967816.9644  115441694.56048  21967807.9664   89954563.94448
  22011903.2104  115673391.41349  22011893.0764   90135086.85349
  20904884.9114  109855993.48848  20904876.6834   85602064.02949
  22433981.541   117891393.701 8  22433973.195    91863387.817 8
  20250931.3304  106419424.91248  20250922.3994   82924229.93349
  23208359.636   121960778.615 7  23208351.498    95034347.457 8
  24231456.6534  127337165.41847  24231451.2024   99223741.33947
 13  6 30  0 32 30.0000000  0  8G01G11G23G32G17G20G31G13
  20506436.764   107762143.027 9  20506431.270    83970475.421 9
  21985103.7694  115532537.27449  21985094.7424   90025350.46748
  21995895.1634  115589268.80748  21995885.0154   90069536.83249
  20912842.9914  109897813.79248  20912834.8204   85634651.27249
  22427960.305   117859751.825 8  22427951.949    91838731.822 8
  20246880.0894  106398135.80948  20246871.1944   82907641.04949
  23205098.415   121943640.784 7  23205090.224    95020993.333 7
  24209638.9124  127222512.66647  24209633.4384   99134401.74247
 13  6 30  0 33  0.0000000  0  8G01G11G23G32G17G20G31G13
  20513667.943   107800143.132 8  20513662.462    84000085.878 9
  22002449.4294  115623689.20548  22002440.3714   90096377.91948
  21979949.4924  115505473.92848  21979939.3174   90004242.17649
  20920851.3954  109939898.67548  20920843.2844   85667444.71449
  22422047.073   117828678.086 8  22422038.815    91814518.527 8
  20242894.1974  106377189.80748  20242885.2744   82891319.49749
  23201943.657   121927063.047 7  23201935.549    95008075.656 7
  24187841.6334  127107967.69247  24187836.2054   99045146.09247
 13  6 30  0 33 30.0000000  0  8G01G11G23G32G17G20G31G13
  20520984.821   107838593.709 8  20520979.361    84030047.358 9
  22019853.2514  115715147.03549  22019844.2024   90167643.75849
  21964066.2284  115422007.00049  21964056.0154   89939203.08549
  20928909.6864  109982245.40548  20928901.6024   85700442.18349
  22416241.909   117798171.741 8  22416233.671    91790747.370 8
  20238973.2884  106356585.22648  20238964.3294   82875264.00849
  23198895.425   121911044.788 7  23198887.331    94995593.961 7
  24166064.9634  126993530.76647  24166059.4694   98955974.62347
 13  6 30  0 34  0.0000000  0  8G01G11G23G32G17G20G31G13
  20528358.170   107877340.796 9  20528352.717    84060239.893 9
  22037285.6614  115806754.90649  22037276.5994   90239026.50949
  21948216.4244  115338715.78148  21948206.1594   89874300.88749
  20936988.3134  110024699.12548  20936980.2454   85733522.99949
  22410515.659   117768080.092 8  22410507.411    91767299.355 8
  20235088.1254  106336168.24747  20235079.1214   82859354.67049
  23195924.607   121895433.349 6  23195916.512    94983429.266 7
  24144279.9354  126879050.48347  24144274.4894   98866769.39647
 13  6 30  0 34 30.0000000  0  8G01G11G23G32G17G20G31G13
  20535846.641   107916692.790 9  20535841.149    84090903.772 9
  22054805.0024  115898819.41549  22054795.8994   90310765.05249
  21932459.1404  115255910.69449  21932448.7964   89809777.49549
  20945145.8614  110067567.33248  20945137.7954   85766926.80449
  22404927.353   117738713.350 8  22404919.062    91744416.186 8
  20231297.3304  106316247.60948  20231288.3564   82843832.11949
  23193090.177   121880538.758 7  23193082.061    94971823.102 8
  24122545.8234  126764837.64047  24122540.3984   98777772.55447
 13  6 30  0 35  0.0000000  0  8G01G11G23G32G17G20G31G13
  20543420.828   107956495.346 9  20543415.357    84121918.761 9
  22072381.6194  115991184.97149  22072372.5064   90382738.19648
  21916765.3474  115173439.50749  21916755.0064   89745514.29649
  20953352.7204  110110694.79348  20953344.6614   85800532.61049
  22399447.824   117709917.728 8  22399439.405    91721978.034 8
  20227571.6084  106296669.05748  20227562.6564   82828576.12649
  23190363.007   121866207.692 7  23190354.935    94960656.100 8
  24100833.6674  126650740.11547  24100828.2864   98688865.58447
 13  6 30  0 35 30.0000000  0  8G01G11G23G32G17G20G31G13
  20551110.209   107996903.443 8  20551104.761    84153405.586 9
  22090044.6544  116084004.65749  22090035.5044   90455065.22049
  21901164.9524  115091458.93949  21901154.5904   89681633.39049
  20961638.2124  110154235.72148  20961630.2134   85834460.62149
  22394106.621   117681849.581 8  22394098.188    91700106.766 8
  20223940.6844  106277588.23347  20223931.6844   82813707.96549
  23187772.816   121852596.524 7  23187764.790    94950050.015 8
  24079173.4374  126536915.40247  24079168.0094   98600171.18347
 13  6 30  0 36  0.0000000  0  8G01G11G23G32G17G20G31G13
  20558856.157   108037608.737 8  20558850.710    84185124.014 9
  22107735.1544  116176968.61549  22107725.9674   90527504.64348
  21885599.6294  115009662.42449  21885589.1614   89617895.86949
  20969943.5574  110197880.91648  20969935.6194   85868469.87149
  22388845.495   117654202.303 8  22388837.072    91678563.438 8
  20220345.7774  106258697.11848  20220336.8024   82798987.65049
  23185261.222   121839398.383 7  23185253.184    94939765.784 8
  24057506.9464  126423057.97347  24057501.5024   98511451.27447
 13  6 30  0 36 30.0000000  0  8G01G11G23G32G17G20G31G13
  20566658.606   108078610.819 9  20566653.162    84217073.690 9
  22125452.5874  116270074.47849  22125443.4184   90600054.64749
  21870069.5984  114928051.56249  21870059.1134   89554303.04449
  20978268.4604  110241629.13948  20978260.6134   85902559.39449
  22383664.490   117626976.185 8  22383656.120    91657348.308 8
  20216786.9444  106239995.63648  20216778.0334   82784415.08549
  23182828.380   121826613.586 7  23182820.303    94929803.668 8
  24035834.5844  126309169.56647  24035829.1034   98422707.23447
 13  6 30  0 37  0.0000000  0  8G01G11G23G32G17G20G31G13
  20574576.005   108120216.846 8  20574570.546    84249493.989 9
  22143255.2304  116363627.74749  22143246.0454   90672953.30048
  21854633.6654  114846935.43849  21854623.2114   89491095.73149
  20986671.2984  110285786.72448  20986663.5104   85936967.91249
  22378622.361   117600479.680 8  22378614.002    91636701.679 8
  20213322.7734  106221791.48548  20213313.9034   82770230.05149
  23180532.917   121814550.782 7  23180524.824    94920404.129 8
  24014215.2304  126195559.97047  24014209.7754   98334180.44947
 13  6 30  0 37 30.0000000  0  8G01G11G23G32G17G20G31G13
  20582607.917   108162425.014 8  20582602.476    84282383.464 9
  22161142.4004  116457625.14849  22161133.1224   90746198.01548
  21839291.9864  114766314.55849  21839281.5314   89428274.30449
  20995151.6334  110330351.18548  20995143.8454   85971693.46749
  22373718.984   117574712.260 8  22373710.603    91616623.201 8
  20209953.0194  106204083.18248  20209944.1014   82756431.40049
  23178374.794   121803209.772 7  23178366.635    94911567.015 7
  23992649.0714  126082229.85147  23992643.6344   98245871.45947
 13  6 30  0 38  0.0000000  0  8G01G11G23G32G17G20G31G13
  20590696.229   108204929.319 9  20590690.787    84315503.681 9
  22179055.5044  116551758.95649  22179046.1544   90819549.01548
  21823986.6264  114685884.34649  21823976.1344   89365601.45149
  21003650.9704  110375015.69148  21003643.2214   86006496.99249
  22368896.326   117549369.150 8  22368887.954    91596875.323 8
  20206619.4624  106186565.03748  20206610.4784   82742780.89749
  23176295.927   121792285.437 7  23176287.718    94903054.573 8
  23971078.3744  125968875.45247  23971072.8354   98157543.51647
 13  6 30  0 38 30.0000000  0  8G01G11G23G32G17G20G31G13
  20598869.690   108247881.394 9  20598864.278    84348972.822 9
  22197023.1124  116646179.12449  22197013.7254   90893123.15048
  21808746.7844  114605798.62449  21808736.2964   89303197.04949
  21012198.1224  110419931.21848  21012190.3354   86041496.11849
  22364183.546   117524603.385 8  22364175.184    91577577.318 8
  20203350.9974  106169389.07348  20203341.9784   82729397.06049
  23174325.480   121781930.734 7  23174317.213    94894985.997 8
  23949532.5294  125855651.27147  23949526.8124   98069317.03147
 13  6 30  0 39  0.0000000  0  8G01G11G23G32G17G20G31G13
  20607128.628   108291282.346 8  20607123.218    84382791.738 9
  22215045.1504  116740885.32249  22215035.7304   90966920.18548
  21793573.0924  114526060.64949  21793562.6154   89241063.61349
  21020793.1294  110465098.09448  21020785.2874   86076691.07349
  22359580.960   117500416.883 8  22359572.666    91558730.715 8
  20200147.8954  106152556.84648  20200138.9054   82716281.07449
  23172463.905   121772148.029 7  23172455.594    94887363.168 8
  23928012.1554  125742560.94447  23928006.2634   97981194.85247
 13  6 30  0 39 30.0000000  0  8G01G11G23G32G17G20G31G13
  20615443.461   108334977.087 8  20615438.079    84416839.581 9
  22233091.7394  116835720.66449  22233082.3084   91040817.84348
  21778436.3704  114446516.95249  21778425.9354   89179081.56049
  21029406.2644  110510360.42748  21029398.3994   86111960.45149
  22355059.367   117476655.627 8  22355051.016    91540215.437 8
  20196980.7784  106135913.71947  20196971.7634   82703312.41049
  23170681.844   121762783.231 7  23170673.514    94880065.972 7
  23906488.0444  125629451.28547  23906482.0264   97893057.57447
 13  6 30  0 40  0.0000000  0  8G01G11G23G32G17G20G31G13
  20623872.703   108379273.491 8  20623867.389    84451356.258 9
  22251221.2024  116930991.45049  22251211.7334   91115054.80749
  21763395.7024  114367477.89249  21763385.2514   89117492.72749
  21038096.0404  110556025.56948  21038088.1734   86147543.68849
  22350677.583   117453629.010 8  22350669.167    91522272.625 8
  20193908.3124  106119768.05547  20193899.3384   82690731.40249
  23169038.105   121754145.637 7  23169029.798    94873335.420 7
  23885019.3604  125516633.27847  23885013.3194   97805147.56147
 13  6 30  0 40 30.0000000  0  8G01G11G23G32G17G20G31G13
  20632386.912   108424016.526 8  20632381.675    84486220.959 9
  22269403.6994  117026540.98749  22269394.2354   91189508.99148
  21748421.9054  114288790.05849  21748411.4044   89056177.57549
  21046832.8154  110601937.75848  21046824.9234   86183319.40649
  22346406.209   117431182.784 8  22346397.810    91504782.071 8
  20190901.0934  106103965.19747  20190892.0934   82678417.48949
  23167503.474   121746081.348 7  23167495.208    94867051.590 7
  23863577.2144  125403954.73147  23863571.1634   97717346.26347
 13  6 30  0 41  0.0000000  0  8G01G11G23G32G17G20G31G13
  20640985.887   108469204.505 8  20640980.657    84521432.355 9
  22287638.6094  117122366.02548  22287629.1564   91264177.81748
  21733514.9524  114210453.68249  21733504.4374   88995136.28849
  21055616.2164  110648094.65548  21055608.2794   86219285.84449
  22342245.238   117409316.547 8  22342236.823    91487743.460 8
  20187958.8874  106088503.80247  20187949.8624   82666369.66849
  23166077.881   121738589.870 7  23166069.610    94861214.129 8
  23842161.7194  125291416.16647  23842155.6734   97629654.03747
 13  6 30  0 41 30.0000000  0  8G01G11G23G32G17G20G31G13
  20649640.422   108514684.329 9  20649635.192    84556871.165 9
  22305896.4854  117218311.93548  22305887.0804   91338940.83848
  21718646.1004  114132317.83649  21718635.6124   88934251.24749
  21064416.9584  110694342.48948  21064408.9334   86255323.11349
  22338165.733   117387878.481 8  22338157.293    91471038.467 8
  20185052.6624  106073231.48547  20185043.6224   82654469.16549
  23164732.436   121731519.320 7  23164724.132    94855704.623 8
  23820744.2554  125178867.19547  23820738.1964   97541953.67747
 13  6 30  0 42  0.0000000  0  8G01G11G23G32G17G20G31G13
  20658408.975   108560763.575 9  20658403.778    84592777.062 9
  22324235.6324  117314684.99248  22324226.3004   91414036.69148
  21703874.2274  114054691.68149  21703863.7634   88873763.37149
  21073293.3804  110740988.27748  21073285.3334   86291670.48449
  22334226.449   117367177.462 8  22334217.991    91454907.808 8
  20182240.9824  106058456.32247  20182231.9824   82642956.09349
  23163525.764   121725178.218 7  23163517.421    94850763.530 8
  23799383.7654  125066617.75548  23799377.7084   97454486.73748
 13  6 30  0 42 30.0000000  0  8G01G11G23G32G17G20G31G13
  20667291.597   108607442.196 8  20667286.389    84629149.994 9
  22342655.6764  117411482.97848  22342646.4124   91489463.65848
  21689199.7954  113977577.52048  21689189.3764   88813674.45949
  21082245.3764  110788031.21048  21082237.3254   86328327.33449
  22330427.595   117347214.291 8  22330419.125    91439352.088 8
  20179524.0064  106044178.76647  20179514.9994   82631830.75349
  23162458.008   121719567.495 7  23162449.714    94846391.575 8
  23778080.8584  124954670.78148  23778074.7434   97367255.46648
 13  6 30  0 43  0.0000000  0  8G01G11G23G32G17G20G31G13
  20676229.415   108654410.870 8  20676224.259    84665748.951 9
  22361097.5214  117508395.46248  22361088.2954   91564979.83548
  21674564.2634  113900667.97049  21674553.9144   88753744.99949
  21091214.0054  110835161.54648  21091205.9344   86365052.28949
  22326710.435   117327680.421 8  22326701.925    91424130.899 8
  20176843.0224  106030090.09847  20176833.9704   82620852.57549
  23161470.616   121714379.342 7  23161462.373    94842348.888 7
  23756777.0974  124842719.26548  23756770.9204   97280020.62448
 13  6 30  0 43 30.0000000  0  8G01G11G23G32G17G20G31G13
  20685222.764   108701671.612 8  20685217.664    84702575.503 9
  22379561.2244  117605422.87948  22379552.0714   91640585.59948
  21659968.4464  113823966.93449  21659958.1504   88693977.97649
  21100199.4784  110882380.65248  21100191.4144   86401846.39049
  22323075.665   117308579.324 8  22323067.048    91409246.935 8
  20174198.4614  106016192.77547  20174189.3864   82610023.50749
  23160564.328   121709616.829 7  23160556.018    94838637.892 8
  23735473.3804  124730767.97647  23735467.1274   97192785.96348
 13  6 30  0 44  0.0000000  0  8G01G11G23G32G17G20G31G13
  20694329.879   108749529.827 8  20694324.764    84739867.620 9
  22398104.5854  117702868.96148  22398095.4784   91716517.56548
  21645470.8864  113747781.86449  21645460.5504   88634613.04049
  21109259.8474  110929993.39748  21109251.8214   86438947.24449
  22319581.455   117290217.191 8  22319572.868    91394938.789 8
  20171648.4404  106002792.38847  20171639.3494   82599581.65949
  23159797.371   121705586.441 7  23159788.968    94835497.326 8
  23714228.3734  124619125.08548  23714222.0354   97105791.61448
 13  6 30  0 44 30.0000000  0  8G01G11G23G32G17G20G31G13
  20703550.721   108797985.867 9  20703545.624    84777625.562 9
  22416727.4104  117800732.56748  22416718.3354   91792774.92448
  21631071.9334  113672115.04349  21631061.5774   88575651.90249
  21118395.1184  110977999.57048  21118387.0954   86476354.66349
  22316228.201   117272595.848 8  22316219.576    91381207.870 8
  20169193.2574  105989890.18948  20169184.1624   82589528.01549
  23159169.950   121702289.572 7  23159161.576    94832928.384 8
  23693042.5534  124507793.28947  23693036.1464   97019039.69147
 13  6 30  0 45  0.0000000  0  8G01G11G23G32G17G20G31G13
  20712826.491   108846730.429 8  20712821.371    84815608.318 9
  22435370.5024  117898702.79948  22435361.4934   91869115.35648
  21616713.1574  113596659.47848  21616702.8094   88516855.39549
  21127546.2724  111026089.39648  21127538.3174   86513827.26149
  22312957.193   117255406.835 8  22312948.601    91367813.838 8
  20166774.0874  105977177.42547  20166764.9734   82579621.96749
  23158623.440   121699417.832 7  23158615.043    94830690.673 8
  23671857.5804  124396466.06347  23671851.0904   96932291.30247
 13  6 30  0 45 30.0000000  0  8G01G11G23G32G17G20G31G13
  20722186.624   108895918.260 9  20722181.487    84853936.492 9
  22454063.1024  117996933.14048  22454054.1394   91945658.42848
  21602424.3594  113521571.65249  21602413.9914   88458345.45149
  21136742.7274  111074417.15748  21136734.7854   86551485.26249
  22309798.072   117238805.728 8  22309789.531    91354877.911 8
  20164420.4234  105964809.27747  20164411.4024   82569984.48549
  23158187.443   121697127.087 7  23158179.133    94828905.759 8
  23650703.4604  124285300.97847  23650696.9094   96845669.28047
 13  6 30  0 46  0.0000000  0  8G01G11G23G32G17G20G31G13
  20731630.837   108945547.431 9  20731625.586    84892608.560 9
  22472804.5814  118095420.15048  22472795.6354   92022401.53348
  21588205.5084  113446851.52349  21588195.1554   88400122.00749
  21145984.0084  111122980.35448  21145976.0734   86589326.72749
  22306750.732   117222791.909 8  22306742.237    91342399.628 8
  20162132.2044  105952784.60547  20162123.1864   82560614.62449
  23157861.957   121695416.648 7  23157853.625    94827572.983 8
  23629580.3714  124174298.76947  23629573.7654   96759174.16247
 13  6 30  0 46 30.0000000  0  8G01G11G23G32G17G20G31G13
  20741158.896   108995617.531 9  20741153.593    84931624.219 9
  22491594.5094  118194161.70048  22491585.5664   92099342.97348
  21574056.9704  113372500.89349  21574046.6334   88342186.48649
  21155269.9704  111171778.16449  21155261.9464   86627351.01249
  22303815.273   117207366.033 7  22303806.775    91330379.462 8
  20159909.2584  105941103.19447  20159900.2784   82551512.24949
  23157646.966   121694286.990 7  23157638.619    94826692.755 8
  23608488.6494  124063461.83347  23608482.0554   96672807.82247
 13  6 30  0 47  0.0000000  0  8G01G11G23G32G17G20G31G13
  20750741.456   109045973.912 9  20750736.108    84970862.952 9
  22510403.2114  118293001.85048  22510394.2414   92176361.22548
  21559949.7834  113298367.05949  21559939.3964   88284419.89549
  21164571.0074  111220655.31649  21164562.9584   86665437.10349
  22300962.438   117192374.407 7  22300953.932    91318697.672 8
  20157722.5144  105929611.90247  20157713.4964   82542557.99449
  23157513.244   121693584.398 7  23157504.880    94826145.306 7
  23587399.4534  123952637.92747  23587392.8134   96586451.65147
