     2.11           OBSERVATION DATA    M (MIXED)           RINEX VERSION / TYPE
MAKERINEX 2.0.11285 AUBG                2013-07-19 01:04    PGM / RUN BY / DATE
AUBG                                                        MARKER NAME
10913M001                                                   MARKER NUMBER
NTRIPS05-596771-32  BKG                                     OBSERVER / AGENCY
355615              LEICA GRX1200+GNSS  8.70/6.112          REC # / TYPE / VERS
10211013            LEIAR25.R4      LEIT                    ANT # / TYPE
  4164313.4740   803525.3740  4748474.5530                  APPROX POSITION XYZ
         .0450         .0000         .0000                  ANTENNA: DELTA H/E/N
     1     1                                                WAVELENGTH FACT L1/2
    16    C1    C2    C5    C7    C8    P2    L1    L2    L5# / TYPES OF OBSERV
          L7    L8    S1    S2    S5    S7    S8            # / TYPES OF OBSERV
    30.000                                                  INTERVAL
  2013     7    19     0     0    0.0000000     GPS         TIME OF FIRST OBS
  2013     7    19     0    59   30.0000000     GPS         TIME OF LAST OBS
     0                                                      RCV CLOCK OFFS APPL
                                                            END OF HEADER
 13  7 19  0  0  0.0000000  0 23G13G12G04G17G32G01G20G31G23G11R03R02
                                R18R04R17R12R19R11R13E11E19S26S20
  22718863.220
  22718860.480   119388485.192 8  93030007.979 6
                        49.250          38.900

  25712124.820    25712121.620
  25712120.140   135118122.14716 105286833.45215
                        38.650          32.000

  23417420.060
  23417419.320   123059392.26017  95890446.092 6
                        45.300          36.350

  22328661.420    22328658.280
  22328657.740   117337929.436 8  91432144.663 7
                        50.250          45.400

  21769150.000
  21769146.700   114397812.593 8  89141238.406 7
                        49.950          43.600

  21752507.400    21752507.640    21752506.100
  21752506.620   114310304.245 8  89073020.899 7  85361648.061 8
                        49.750          46.800          51.850

  20085633.580
  20085628.540   105550866.317 8  82247461.922 8
                        49.350          48.350

  23168285.700    23168282.260
  23168281.640   121750201.414 7  94870293.419 7
                        47.750          42.650

  21026750.460
  21026744.460   110496409.998 8  86101109.946 7
                        50.300          45.650

  24140128.080
  24140125.140   126857321.841 7  98849899.126 5
                        46.600          34.600

  19659349.860
  19659349.580   105238149.723 7  81851928.147 7
                        47.200          45.950

  20707339.900
  20707342.420   110498481.446 8  85943346.228 7
                        49.200          45.250

  20244100.020
  20244104.300   108064419.004 8  84050115.739 7
                        50.100          46.800

  22872691.520
  22872693.580   122482267.41717  95264010.34416
                        47.050          40.750

  22591341.380
  22591344.160   120890867.262 7  94026245.291 7
                        46.150          43.000

  21906276.920
  21906280.540   117019430.771 8  91015149.924 6
                        49.100          41.150

  22184502.400
  22184503.220   118672127.48017  92300545.070 6
                        47.400          41.100

  22806743.780
  22806746.580   121872346.293 7  94789629.019 5
                        45.850          35.550

  23785648.360
  23785655.320   127014034.52317  98788726.92516
                        44.350          41.150

  25597358.420                    25597358.520    25597377.000    25597378.200
                 134515068.224 8                 100449583.260 7 103070080.789 7
 101759884.964 7        51.100                          47.800          47.950
        43.350
  28324957.520                    28324960.340    28324979.740    28324980.140
                 148848777.340 7                 111153386.825 7 114053108.204 7
 112603233.955 6        43.350                          45.350          46.400
        41.100
  38398934.200
                 201788251.253 7
                        45.300

  38732088.680
                 203538549.826 7
                        45.650

 13  7 19  0  0 30.0000000  0 23G13G12G04G17G32G01G20G31G23G11R03R02
                                R18R04R17R12R19R11R13E11E19S26S20
  22699376.540
  22699373.900   119286082.775 8  92950213.939 6
                        49.050          37.550

  25718028.240    25718025.000
  25718023.280   135149144.950 7 105311007.074 4
                        42.000          27.800

  23398246.280
  23398245.280   122958632.554 7  95811932.117 5
                        46.050          34.450

  22334514.420    22334511.200
  22334510.700   117368686.752 8  91456111.384 7
                        50.150          45.350

  21781584.220
  21781580.900   114463154.608 8  89192154.257 7
                        50.050          42.100

  21768384.060    21768384.300    21768382.780
  21768383.280   114393736.864 8  89138033.308 7  85423951.609 8
                        49.850          46.600          52.100

  20087827.120
  20087822.100   105562393.757 8  82256444.345 8
                        49.350          48.250

  23173783.760    23173780.260
  23173779.640   121779093.804 7  94892806.970 7
                        47.700          42.050

  21015963.440
  21015957.500   110439724.540 8  86056939.490 7
                        50.300          45.600

  24161789.720
  24161786.700   126971154.281 7  98938599.677 5
                        46.250          33.200

  19654777.940
  19654777.560   105213675.692 7  81832892.798 7
                        47.250          46.550

  20720827.200
  20720829.640   110570451.970 8  85999323.302 7
                        49.450          45.600

  20253847.040
  20253851.280   108116449.360 8  84090583.777 7
                        50.000          47.250

  22854736.620
  22854738.580   122386120.102 7  95189229.153 6
                        47.100          40.900

  22616341.780
  22616344.440   121024648.704 7  94130297.365 7
                        47.000          43.550

  21894664.920
  21894668.680   116957401.752 8  90966905.165 6
                        49.000          41.700

  22167188.300
  22167189.020   118579508.514 7  92228508.149 6
                        47.400          41.600

  22817326.620
  22817329.640   121928897.656 7  94833613.431 6
                        45.700          36.300

  23761679.240
  23761685.020   126886038.867 7  98689174.872 6
                        44.000          41.000

  25613861.680                    25613861.900    25613880.240    25613881.560
                 134601793.267 8                 100514345.413 8 103136532.405 8
 101825491.849 7        50.950                          48.650          48.000
        43.600
  28339383.780                    28339386.180    28339405.440    28339405.960
                 148924585.354 7                 111209996.629 7 114111194.796 7
 112660582.152 7        43.750                          47.100          46.950
        42.050
  38398489.420
                 201785917.216 7
                        45.150

  38732102.620
                 203538624.364 7
                        45.750

 13  7 19  0  1  0.0000000  0 24G13G12G04G17G32G10G01G20G31G23G11R03
                                R02R18R04R17R12R19R11R13E11E19S26S20
  22679939.440
  22679936.860   119183940.735 8  92870622.790 6
                        48.850          39.250

  25724028.520    25724025.320
  25724024.640   135180677.461 6 105335577.860 4
                        40.650          29.000

  23379112.360
  23379111.040   122858082.261 7  95733581.338 5
                        46.250          35.550

  22340473.760    22340470.560
  22340470.140   117400003.854 8  91480514.288 7
                        49.950          45.100

  21794058.400
  21794054.920   114528706.591 8  89243233.712 7
                        49.800          43.550

  25423342.200
  25423342.660   133600564.44116 104104337.01415
                        39.900          30.500

  21784328.120    21784328.360    21784326.760
  21784327.400   114477523.152 8  89203321.299 7  85486519.262 8
                        49.900          47.000          51.450

  20090094.240
  20090089.280   105574307.572 8  82265727.835 8
                        49.400          48.150

  23179392.420    23179388.860
  23179388.140   121808567.406 7  94915773.403 7
                        47.600          42.400

  21005258.320
  21005252.320   110383468.873 8  86013103.928 7
                        50.300          45.350

  24183467.460
  24183464.680   127085072.372 7  99027366.906 5
                        45.900          35.150

  19650280.020
  19650279.560   105189597.838 7  81814165.592 7
                        46.300          46.000

  20734358.780
  20734361.020   110642658.975 8  86055484.293 7
                        48.500          45.000

  20263737.140
  20263741.500   108169243.756 8  84131646.065 7
                        49.200          46.800

  22836810.940
  22836812.920   122290129.266 7  95114569.672 6
                        46.050          40.700

  22641379.260
  22641381.920   121158628.589 7  94234503.792 7
                        46.050          42.650

  21883180.880
  21883184.680   116896056.371 8  90919192.123 6
                        48.350          40.850

  22149980.340
  22149980.780   118487457.387 7  92156912.863 6
                        46.850          41.150

  22828045.820
  22828049.060   121986177.712 7  94878164.581 5
                        45.000          35.250

  23737726.500
  23737732.000   126758134.659 7  98589693.970 6
                        43.700          39.450

  25630397.640                    25630397.820    25630416.080    25630417.500
                 134688689.800 8                 100579235.630 7 103203115.421 7
 101891228.466 7        51.000                          47.250          47.550
        42.750
  28353807.800                    28353810.600    28353829.740    28353830.360
                 149000385.796 7                 111266600.737 7 114169275.539 7
 112717924.577 6        42.750                          45.650          46.350
        41.100
  38398043.720
                 201783581.287 7
                        45.250

  38732116.600
                 203538697.677 7
                        45.700

 13  7 19  0  1 30.0000000  0 24G13G12G04G17G32G10G01G20G31G23G11R03
                                R02R18R04R17R12R19R11R13E11E19S26S20
  22660551.440
  22660548.980   119082057.092 8  92791232.999 6
                        49.000          37.850

  25730125.040    25730121.900
  25730120.480   135212714.951 7 105360548.13516
                        45.600          37.800

  23360018.000
  23360016.540   122757740.299 7  95655392.882 5
                        46.750          35.500

  22346538.820    22346535.640
  22346535.200   117431875.860 8  91505349.593 7
                        50.150          44.200

  21806571.580
  21806568.100   114594464.158 8  89294473.377 7
                        49.800          42.700

  25403572.760
  25403572.600   133496675.677 6 104023384.689 5
                        41.500          32.550

  21800338.500    21800338.860    21800337.140
  21800337.860   114561658.141 8  89268880.999 7  85549347.307 8
                        49.900          46.050          51.600

  20092434.140
  20092429.300   105586604.050 8  82275309.508 7
                        49.300          47.700

  23185110.940    23185107.400
  23185106.440   121838618.029 7  94939189.475 6
                        47.800          41.350

  20994634.540
  20994628.460   110327640.490 8  85969601.318 7
                        50.300          44.550

  24205160.720
  24205158.100   127199070.513 7  99116196.530 5
                        45.550          35.000

  19645855.480
  19645854.940   105165912.525 7  81795743.699 7
                        47.250          46.000

  20747933.680
  20747936.000   110715097.536 8  86111825.396 7
                        48.800          44.750

  20273769.360
  20273773.740   108222796.327 8  84173298.043 7
                        49.700          46.850

  22818913.960
  22818915.900   122194291.968 7  95040029.631 6
                        46.600          40.850

  22666452.440
  22666455.140   121292799.287 7  94338858.657 7
                        47.050          42.250

  21871824.840
  21871828.520   116835394.521 8  90872010.714 6
                        48.950          40.650

  22132878.660
  22132879.140   118395974.730 7  92085759.740 6
                        47.550          41.500

  22838900.300
  22838903.360   122044180.281 7  94923277.699 5
                        46.000          34.400

  23713791.540
  23713796.620   126630322.750 7  98490284.817 6
                        45.700          37.700

  25646965.240                    25646965.400    25646983.660    25646985.060
                 134775752.572 8                 100644249.988 7 103269825.812 8
 101957090.841 7        51.050                          47.100          48.500
        43.750
  28368230.580                    28368232.960    28368251.920    28368252.600
                 149076175.082 7                 111323196.587 7 114227347.802 7
 112775258.636 6        45.000                          44.800          46.750
        41.450
  38397597.900
                 201781238.797 7
                        45.050

  38732129.760
                 203538766.355 7
                        45.700

 13  7 19  0  2  0.0000000  0 24G13G12G04G17G32G10G01G20G31G23G11R03
                                R02R18R04R17R12R19R11R13E11E19S26S20
  22641213.800
  22641211.460   118980438.096 8  92712049.429 6
                        48.950          38.950

  25736318.120    25736314.880
  25736313.440   135245259.349 6 105385907.400 4
                        39.550          29.100

  23340964.380
  23340962.780   122657612.958 7  95577371.663 5
                        47.150          34.700

  22352709.960    22352706.880
  22352706.380   117464305.448 8  91530619.385 7
                        50.100          45.050

  21819124.520
  21819121.040   114660430.177 8  89345875.463 7
                        50.050          43.150

  25383808.140
  25383807.880   133392813.480 6 103942448.17614
                        39.100          28.700

  21816415.620    21816416.000    21816414.380
  21816414.980   114646144.056 8  89334714.157 7  85612437.408 8
                        49.800          46.750          51.750

  20094847.580
  20094842.780   105599286.823 8  82285192.194 8
                        49.300          48.400

  23190939.760    23190936.040
  23190935.080   121869248.346 7  94963057.258 6
                        47.750          41.700

  20984092.980
  20984086.880   110272244.058 8  85926435.298 7
                        50.500          45.300

  24226869.640
  24226866.880   127313150.549 7  99205089.956 5
                        46.100          35.150

  19641504.960
  19641504.500   105142623.561 7  81777630.073 7
                        47.500          46.350

  20761552.580
  20761554.920   110787770.271 8  86168348.639 7
                        49.200          45.000

  20283943.820
  20283948.220   108277108.181 8  84215540.567 7
                        50.050          47.050

  22801046.480
  22801048.380   122098612.871 7  94965612.632 6
                        46.800          40.900

  22691561.240
  22691563.780   121427160.368 7  94443361.618 6
                        47.850          41.750

  21860598.100
  21860601.640   116775423.481 8  90825366.600 6
                        49.050          40.850

  22115884.600
  22115885.280   118305068.144 7  92015054.665 6
                        47.400          41.900

  22849890.220
  22849892.920   122102906.681 7  94968953.800 5
                        46.200          34.550

  23689875.420
  23689880.940   126502611.566 7  98390953.981 6
                        45.950          38.150

  25663564.920                    25663564.940    25663583.280    25663584.540
                 134862983.596 8                 100709389.994 7 103336665.122 7
 102023080.497 7        51.050                          47.400          47.100
        42.050
  28382651.600                    28382653.460    28382672.580    28382673.380
                 149151956.787 7                 111379786.800 7 114285414.282 7
 112832586.980 6        45.600                          44.900          44.400
        39.200
  38397151.940
                 201778893.906 7
                        45.350

  38732143.260
                 203538836.199 7
                        45.750

 13  7 19  0  2 30.0000000  0 23G13G04G17G32G10G01G20G31G23G11R03R02
                                R18R04R17R12R19R11R13E11E19S26S20
  22621926.720
  22621924.420   118879084.217 8  92633072.447 6
                        49.000          38.750

  23321951.740
  23321949.860   122557701.013 7  95499518.284 5
                        46.750          34.950

  22358986.540    22358983.580
  22358983.100   117497289.451 8  91556321.189 7
                        50.000          44.650

  21831716.660
  21831713.220   114726602.240 8  89397438.112 7
                        50.150          43.250

  25364048.900
  25364049.180   133288978.044 7 103861537.555 5
                        43.950          35.000

  21832559.000    21832559.380    21832557.880
  21832558.360   114730977.875 8  89400818.409 7  85675787.313 8
                        50.000          46.400          51.700

  20097334.180
  20097329.380   105612354.176 8  82295374.557 7
                        49.400          47.850

  23196878.400    23196874.600
  23196873.660   121900455.797 7  94987374.755 6
                        47.700          41.700

  20973633.600
  20973627.420   110217279.085 8  85883605.486 7
                        50.650          45.250

  24248593.440
  24248590.640   127427308.843 7  99294044.364 6
                        46.000          36.400

  19637228.000
  19637227.620   105119729.152 7  81759823.333 7
                        47.400          45.900

  20775214.840
  20775217.100   110860674.526 8  86225051.946 7
                        49.400          44.550

  20294260.000
  20294264.220   108332175.786 8  84258370.912 7
                        50.300          46.700

  22783208.420
  22783210.320   122003090.998 7  94891317.932 6
                        46.200          41.100

  22716704.560
  22716707.040   121561706.472 7  94548008.507 6
                        47.650          41.200

  21849501.020
  21849504.320   116716144.559 8  90779260.818 6
                        49.300          40.150

  22098998.680
  22098999.260   118214740.035 7  91944799.534 6
                        47.150          41.550

  22861014.740
  22861017.280   122162352.505 7  95015189.454 5
                        46.250          33.800

  23665978.360
  23665984.740   126375003.902 7  98291703.706 6
                        45.650          38.150

  25680195.840                    25680195.840    25680214.300    25680215.460
                 134950379.607 8                 100774653.212 7 103403630.857 8
 102089194.975 7        51.200                          47.200          48.250
        43.350
  28397070.740                    28397072.320    28397091.680    28397092.380
                 149227729.175 7                 111436370.002 7 114343473.567 7
 112889908.224 6        46.300                          45.400          47.000
        41.650
  38396704.860
                 201776545.801 7
                        45.300

  38732156.620
                 203538905.061 7
                        45.800

 13  7 19  0  3  0.0000000  0 23G13G04G17G32G10G01G20G31G23G11R03R02
                                R18R04R17R12R19R11R13E11E19S26S20
  22602690.740
  22602688.400   118777998.609 8  92554304.497 6
                        48.950          39.150

  23302980.680
  23302978.740   122458008.276 7  95421835.710 6
                        46.600          36.200

  22365368.520    22365365.680
  22365365.200   117530827.287 8  91582454.537 7
                        50.050          45.100

  21844348.140
  21844344.700   114792980.801 8  89449161.649 7
                        50.100          43.400

  25344295.180
  25344295.620   133185170.688 7 103780648.787 6
                        43.750          36.850

  21848768.480    21848768.900    21848767.360
  21848767.840   114816159.293 8  89467193.508 7  85739396.784 8
                        49.850          46.700          51.700

  20099894.240
  20099889.380   105625807.201 8  82305857.428 8
                        49.300          48.150

  23202926.900    23202923.180
  23202922.260   121932240.969 7  95012142.406 7
                        47.550          42.450

  20963256.760
  20963250.500   110162747.740 8  85841113.551 7
                        50.600          45.850

  24270331.880
  24270329.060   127541544.433 7  99383058.993 6
                        45.700          36.450

  19633025.000
  19633024.480   105097230.480 7  81742324.370 7
                        47.750          46.550

  20788920.440
  20788922.580   110933810.039 8  86281935.123 7
                        49.250          45.100

  20304717.500
  20304721.540   108387997.817 8  84301788.022 7
                        50.150          47.300

  22765400.000
  22765402.020   121907728.419 7  94817147.108 7
                        46.700          42.050

  22741881.940
  22741884.200   121696434.800 7  94652797.131 6
                        47.600          41.700

  21838534.420
  21838537.620   116657562.803 8  90733697.253 6
                        49.400          41.350

  22082221.760
  22082222.340   118124995.529 7  91874998.308 7
                        47.450          42.250

  22872273.640
  22872276.120   122222516.621 7  95061983.776 5
                        46.100          35.250

  23642102.080
  23642108.840   126247505.963 7  98192538.734 6
                        45.050          37.000

  25696858.020                    25696858.120    25696876.540    25696877.720
                 135037940.112 8                 100840039.246 7 103470722.622 7
 102155433.874 6        51.050                          47.350          46.750
        41.850
  28411488.020                    28411489.820    28411509.320    28411509.880
                 149303493.317 7                 111492947.106 7 114401526.606 7
 112947223.296 6        45.950                          44.500          44.000
        38.500
  38396256.960
                 201774196.763 7
                        45.100

  38732170.520
                 203538977.013 7
                        45.600

 13  7 19  0  3 30.0000000  0 23G13G04G17G32G10G01G20G31G23G11R03R02
                                R18R04R17R12R19R11R13E11E19S26S20
  22583505.880
  22583503.420   118677181.269 8  92475745.592 6
                        49.050          38.600

  23284051.320
  23284049.660   122358535.037 7  95344324.175 5
                        46.650          34.350

  22371855.460    22371852.420
  22371852.040   117564915.733 8  91609016.934 7
                        50.200          44.300

  21857018.300
  21857014.780   114859562.836 8  89501043.740 7
                        50.100          42.250

  25324546.560
  25324546.660   133081390.270 7 103699781.016 5
                        42.650          30.850

  21865043.440    21865043.800    21865042.320
  21865042.740   114901684.654 8  89533836.619 7  85803263.092 8
                        49.950          45.850          51.800

  20102527.340
  20102522.400   105639643.972 8  82316639.323 7
                        49.350          47.600

  23209084.620    23209080.980
  23209080.180   121964600.505 7  95037357.607 6
                        47.600          41.550

  20952962.160
  20952955.840   110108649.015 8  85798958.728 7
                        50.650          45.000

  24292084.240
  24292081.460   127655853.231 7  99472130.677 5
                        46.350          35.950

  19628895.680
  19628895.000   105075125.197 7  81725131.379 7
                        47.850          46.400

  20802668.760
  20802670.960   111007173.592 8  86338995.664 7
                        49.300          44.950

  20315315.460
  20315319.380   108444569.926 8  84345788.525 7
                        50.250          47.150

  22747621.040
  22747623.200   121812523.699 7  94743099.086 6
                        45.900          41.850

  22767092.200
  22767094.440   121831339.106 7  94757722.613 6
                        46.950          40.800

  21827698.460
  21827701.840   116599678.988 8  90688676.537 6
                        49.400          41.350

  22065554.220
  22065554.820   118035836.301 7  91805652.308 6
                        47.450          41.800

  22883666.020
  22883668.500   122283394.174 7  95109332.990 5
                        45.800          34.300

  23618247.020
  23618252.760   126120119.722 7  98093460.586 6
                        43.100          36.450

  25713550.900                    25713550.900    25713569.340    25713570.540
                 135125661.181 8                 100905545.188 7 103537937.419 7
 102221794.244 7        51.050                          47.750          47.000
        42.250
  28425903.300                    28425905.360    28425924.740    28425925.480
                 149379247.024 7                 111549516.395 7 114459571.627 7
 113004530.451 6        46.750                          46.050          46.050
        40.400
  38395809.200
                 201771843.311 7
                        45.100

  38732184.520
                 203539049.570 7
                        45.700

 13  7 19  0  4  0.0000000  0 23G13G04G17G32G10G01G20G31G23G11R03R02
                                R18R04R17R12R19R11R13E11E19S26S20
  22564372.440
  22564370.040   118576634.450 8  92397397.486 6
                        49.250          40.800

  23265164.380
  23265162.620   122259284.181 7  95266985.923 6
                        46.100          36.900

  22378447.080    22378443.920
  22378443.540   117599554.099 8  91636007.863 7
                        50.000          46.100

  21869727.080
  21869723.520   114926347.941 8  89553084.080 7
                        50.050          44.200

  25304803.060
  25304803.120   132977638.223 7 103618935.413 5
                        42.950          33.800

  21881383.680    21881383.940    21881382.400
  21881382.860   114987552.869 8  89600746.896 7  85867385.438 8
                        50.000          47.300          51.300

  20105233.380
  20105228.540   105653864.473 8  82327720.242 8
                        49.400          49.150

  23215351.720    23215348.020
  23215347.320   121997534.007 7  95063020.072 7
                        47.600          43.350

  20942750.080
  20942743.760   110054984.433 8  85757142.190 7
                        50.600          46.250

  24313850.280
  24313847.520   127770233.663 7  99561258.209 6
                        46.600          37.300

  19624839.780
  19624839.260   105053413.706 7  81708244.688 7
                        47.450          46.100

  20816459.640
  20816461.920   111080764.303 8  86396232.890 7
                        49.300          44.550

  20326053.580
  20326057.380   108501889.924 8  84390370.741 7
                        50.250          46.700

  22729871.660
  22729873.820   121717477.994 7  94669174.742 6
                        46.550          41.700

  22792334.600
  22792336.660   121966415.757 7  94862782.164 6
                        46.300          40.850

  21816993.860
  21816997.500   116542496.920 8  90644201.621 6
                        49.600          40.800

  22048997.040
  22048997.520   117947266.783 7  91736764.965 6
                        47.000          41.550

  22895191.540
  22895193.900   122344983.032 7  95157235.450 5
                        45.950          33.350

  23594412.480
  23594418.280   125992850.084 6  97994473.213 5
                        39.100          34.950

  25730274.000                    25730274.020    25730292.420    25730293.700
                 135213541.586 8                 100971170.125 7 103605274.320 8
 102288275.162 7        51.150                          46.550          48.150
        43.550
  28440316.780                    28440319.100    28440338.340    28440339.100
                 149454990.546 7                 111606078.061 7 114517608.831 7
 113061829.886 6        46.200                          44.200          46.100
        40.900
  38395361.260
                 201769486.877 7
                        45.350

  38732198.380
                 203539121.030 7
                        45.800

 13  7 19  0  4 30.0000000  0 23G13G04G17G32G10G01G20G31G23G11R03R02
                                R18R04R17R12R19R11R13E11E19S26S20
  22545291.100
  22545288.560   118476361.074 8  92319262.454 6
                        49.650          40.250

  23246320.340
  23246318.880   122160259.039 7  95189823.571 5
                        46.450          35.850

  22385142.800    22385139.800
  22385139.400   117634740.637 8  91663425.917 7
                        50.350          45.950

  21882474.480
  21882470.980   114993336.135 8  89605282.663 7
                        50.350          43.700

  25285064.980
  25285065.200   132873915.870 7 103538112.911 5
                        43.050          34.000

  21897789.020    21897789.280    21897787.720
  21897788.200   115073763.142 8  89667923.710 7  85931763.206 8
                        50.250          47.350          51.600

  20108012.700
  20108007.820   105668469.562 8  82339100.835 8
                        49.900          48.900

  23221728.000    23221724.260
  23221723.600   122031041.248 8  95089129.602 7
                        48.300          42.850

  20932620.820
  20932614.600   110001755.532 8  85715665.145 7
                        50.800          45.850

  24335629.580
  24335626.920   127884684.407 7  99650440.501 6
                        47.200          37.200

  19620857.460
  19620857.040   105032096.651 7  81691664.782 7
                        47.950          45.950

  20830293.040
  20830295.220   111154581.904 8  86453646.574 7
                        49.550          44.550

  20336931.340
  20336935.180   108559956.134 8  84435533.316 7
                        50.550          46.900

  22712152.580
  22712154.600   121622592.868 7  94595375.288 7
                        47.350          42.650

  22817608.520
  22817610.720   122101661.699 7  94967973.353 6
                        45.950          41.650

  21806421.400
  21806425.060   116486020.552 8  90600275.581 6
                        50.000          41.050

  22032550.860
  22032551.400   117859291.716 7  91668339.974 6
                        47.850          41.550

  22906849.860
  22906852.160   122407281.404 7  95205689.768 5
                        46.550          34.050

  23570601.140
  23570606.820   125865702.459 6  97895580.732 6
                        40.750          36.200

  25747027.300                    25747027.340    25747045.640    25747046.980
                 135301580.359 8                 101036913.313 7 103672732.557 8
 102354875.874 7        51.450                          47.200          48.000
        43.200
  28454728.540                    28454730.940    28454750.020    28454750.800
                 149530724.611 8                 111662632.677 7 114575638.783 7
 113119122.171 6        48.400                          45.800          46.950
        41.850
  38394913.040
                 201767128.504 7
                        45.800

  38732211.640
                 203539191.584 7
                        46.250

 13  7 19  0  5  0.0000000  0 23G13G04G17G32G10G01G20G31G23G11R03R02
                                R18R04R17R12R19R11R13E11E19S26S20
  22526262.000
  22526259.360   118376361.997 8  92241341.153 6
                        49.700          39.700

  23227519.500
  23227518.100   122061460.906 7  95112838.088 5
                        46.250          34.700

  22391942.480    22391939.580
  22391939.100   117670473.635 8  91691269.786 7
                        50.150          45.150

  21895260.120
  21895256.720   115060525.169 8  89657637.746 7
                        50.250          43.600

  25265332.560
  25265332.800   132770222.801 7 103457313.194 5
                        45.800          31.550

  21914258.940    21914259.160    21914257.620
  21914258.160   115160312.683 8  89735364.867 7  85996394.314 8
                        50.100          47.000          51.300

  20110864.940
  20110859.960   105683457.819 8  82350779.994 8
                        49.550          48.300

  23228212.960    23228209.220
  23228208.540   122065119.854 8  95115684.356 7
                        48.100          42.600

  20922574.400
  20922568.260   109948961.764 8  85674527.173 7
                        50.700          45.700

  24357421.700
  24357419.220   127999202.253 7  99739675.071 6
                        46.850          36.650

  19616948.720
  19616948.040   105011172.533 7  81675390.462 7
                        47.700          46.100

  20844168.420
  20844170.580   111228623.703 8  86511234.631 7
                        49.150          44.750

  20347948.180
  20347952.100   108618764.796 8  84481273.361 7
                        50.000          47.000

  22694463.180
  22694465.320   121527867.619 7  94521700.201 7
                        46.450          42.350

  22842913.000
  22842915.460   122237071.292 7  95073291.814 6
                        44.500          41.700

  21795981.300
  21795985.040   116430251.618 8  90556899.777 6
                        49.650          41.050

  22016216.360
  22016217.040   117771913.495 7  91600379.179 6
                        47.600          41.800

  22918640.260
  22918642.660   122470285.473 7  95254692.942 5
                        45.700          34.400

  23546814.480
  23546819.300   125738680.250 7  97796785.765 6
                        43.000          38.300

  25763810.260                    25763810.160    25763828.460    25763829.780
                 135389774.450 8                 101102772.488 7 103740309.803 7
 102421594.086 7        51.300                          46.600          47.850
        42.950
  28469138.360                    28469140.520    28469159.580    28469160.500
                 149606447.500 8                 111719178.951 7 114633660.193 7
 113176406.012 6        48.550                          45.400          46.850
        41.850
  38394462.840
                 201764766.549 7
                        45.400

  38732224.260
                 203539258.699 7
                        45.900

 13  7 19  0  5 30.0000000  0 23G13G04G17G32G10G01G20G31G23G11R03R02
                                R18R04R17R12R19R11R13E11E19S26S20
  22507285.720
  22507282.900   118276640.518 8  92163636.170 6
                        49.750          39.700

  23208762.720
  23208761.460   121962893.601 7  95036032.484 6
                        45.750          36.350

  22398846.220    22398843.360
  22398842.820   117706752.905 8  91719539.328 7
                        50.050          45.250

  21908084.200
  21908080.700   115127915.762 8  89710149.892 7
                        50.300          43.750

  25245606.340
  25245606.440   132666560.970 7 103376537.822 5
                        42.650          30.800

  21930793.280    21930793.680    21930792.000
  21930792.620   115247201.336 8  89803070.287 7  86061278.668 8
                        50.000          47.050          51.450

  20113790.100
  20113785.260   105698830.430 8  82362758.653 8
                        49.450          48.350

  23234806.800    23234803.100
  23234802.260   122099770.462 8  95142684.834 7
                        48.050          42.450

  20912611.460
  20912605.180   109896605.820 8  85633730.352 7
                        50.850          45.850

  24379226.480
  24379223.980   128113786.528 7  99828961.423 6
                        47.150          36.350

  19613113.600
  19613113.000   104990642.993 7  81659423.054 7
                        47.600          46.750

  20858085.960
  20858088.220   111302890.240 8  86568997.483 7
                        49.350          45.450

  20359103.800
  20359107.880   108678314.571 8  84527589.826 7
                        50.150          47.600

  22676804.260
  22676806.240   121433304.709 7  94448151.350 7
                        47.000          42.700

  22868247.700
  22868250.100   122372642.293 7  95178735.851 7
                        45.000          42.350

  21785674.460
  21785678.160   116375194.804 8  90514077.837 6
                        49.600          41.550

  21999994.300
  21999995.200   117685137.533 7  91532886.808 7
                        47.300          42.550

  22930562.260
  22930564.700   122533993.144 7  95304243.369 5
                        45.300          35.000

  23523052.220
  23523057.200   125611789.401 7  97698092.979 6
                        43.700          40.550

  25780622.580                    25780622.380    25780640.860    25780642.040
                 135478123.562 8                 101168747.441 7 103808005.837 7
 102488429.579 7        51.250                          46.750          47.350
        42.300
  28483545.980                    28483548.140    28483567.280    28483568.220
                 149682160.708 8                 111775717.960 7 114691674.129 7
 113233682.483 6        48.650                          43.750          45.600
        39.650
  38394012.400
                 201762399.863 7
                        45.350

  38732236.420
                 203539323.733 7
                        45.900

 13  7 19  0  6  0.0000000  0 24G13G25G04G17G32G10G01G20G31G23G11R03
                                R02R18R04R17R12R19R11R13E11E19S26S20
  22488362.360
  22488359.380   118177197.199 8  92086147.930 6
                        49.700          40.650

  25677035.580                    25677036.120
  25677037.760   134933741.001 6 105143197.64515 100762205.30616
                        39.100          31.100          38.800

  23190050.140
  23190048.800   121864558.293 7  94959407.653 6
                        46.200          38.950

  22405853.080    22405850.260
  22405849.740   117743574.647 8  91748231.572 7
                        49.950          45.750

  21920946.120
  21920942.620   115195505.692 8  89762817.362 7
                        50.250          44.150

  25225885.760
  25225886.300   132562930.485 6 103295786.979 5
                        40.950          31.200

  21947391.620    21947392.040    21947390.440
  21947391.040   115334426.149 8  89871037.635 7  86126414.037 8
                        50.150          47.550          50.700

  20116788.280
  20116783.480   105714585.985 8  82375035.712 8
                        49.650          49.050

  23241508.980    23241505.320
  23241504.420   122134990.642 8  95170129.128 7
                        48.400          43.150

  20902731.720
  20902725.300   109844686.957 8  85593274.118 7
                        50.850          46.600

  24401043.260
  24401040.540   128228433.692 7  99918296.779 6
                        46.800          36.900

  19609351.800
  19609351.360   104970506.137 7  81643761.073 7
                        47.600          45.700

  20872045.040
  20872047.440   111377378.590 8  86626932.868 7
                        49.000          44.300

  20370397.600
  20370401.860   108738602.010 8  84574480.032 7
                        49.750          46.600

  22659175.380
  22659177.320   121338903.227 7  94374728.068 6
                        46.150          41.950

  22893611.560
  22893614.140   122508369.196 7  95284301.116 6
                        45.850          41.500

  21775501.240
  21775504.900   116320851.954 8  90471811.207 6
                        49.350          40.200

  21983885.460
  21983886.360   117598966.267 7  91465864.766 6
                        47.550          41.100

  22942615.220
  22942617.820   122598400.866 7  95354338.268 5
                        45.450          34.300

  23499314.560
  23499320.140   125485033.082 7  97599504.840 6
                        44.600          39.700

  25797463.800                    25797463.640    25797482.060    25797483.240
                 135566624.540 8                 101234835.786 7 103875818.230 7
 102555379.946 7        51.150                          45.350          47.350
        42.300
  28497951.660                    28497953.800    28497972.860    28497973.820
                 149757862.692 8                 111832248.599 6 114749679.481 7
 113290950.479 6        49.450                          41.650          44.650
        38.800
  38393560.960
                 201760028.452 7
                        45.450

  38732248.480
                 203539388.488 7
                        45.950

 13  7 19  0  6 30.0000000  0 24G13G25G04G17G32G10G01G20G31G23G11R03
                                R02R18R04R17R12R19R11R13E11E19S26S20
  22469492.100
  22469489.080   118078033.618 8  92008877.671 6
                        50.100          40.900

  25674597.720                    25674598.200
                 134920926.634 5                 100752635.989 6
                        32.750                          36.600

  23171381.980
  23171380.840   121766456.705 7  94882964.951 6
                        47.250          38.000

  22412962.900    22412960.140
  22412959.660   117780937.014 8  91777345.092 7
                        50.800          47.100

  21933845.680
  21933842.260   115263293.463 8  89815638.998 7
                        50.700          44.550

  25206171.700
  25206171.920   132459330.966 7 103215060.210 5
                        44.700          33.650

  21964053.580    21964053.920    21964052.200
  21964052.920   115421984.930 8  89939265.228 8  86191798.814 8
                        50.700          48.600          50.650

  20119859.180
  20119854.420   105730723.595 8  82387610.470 8
                        50.150          49.650

  23248319.160    23248315.480
  23248314.620   122170778.382 8  95198015.673 7
                        49.050          44.400

  20892935.220
  20892928.680   109793205.569 8  85553158.771 7
                        51.400          47.350

  24422871.380
  24422868.620   128343141.313 7 100007679.235 6
                        47.000          37.300

  19605663.380
  19605662.840   104950761.323 7  81628404.015 7
                        47.900          46.350

  20886045.360
  20886047.720   111452087.055 8  86685039.446 7
                        49.250          45.050

  20381828.880
  20381833.280   108799623.362 8  84621941.050 7
                        50.000          47.350

  22641576.660
  22641578.680   121244663.242 7  94301430.429 7
                        46.950          42.650

  22919003.740
  22919006.520   122644247.203 7  95389983.919 7
                        46.400          42.300

  21765462.200
  21765465.760   116267225.220 8  90430101.557 6
                        49.550          41.150

  21967890.420
  21967891.180   117513402.835 7  91399315.494 7
                        47.450          42.200

  22954798.540
  22954801.500   122663505.208 7  95404974.991 5
                        45.000          35.700

  23475603.040
  23475608.840   125358415.272 7  97501024.479 6
                        45.550          40.700

  25814333.380                    25814333.280    25814351.640    25814352.860
                 135655274.999 8                 101301035.763 7 103943745.163 7
 102622443.401 6        51.450                          45.050          46.800
        41.650
  28512355.160                    28512357.580    28512376.080    28512377.360
                 149833552.641 8                 111888770.235 6 114807675.623 7
 113348209.369 6        50.000                          40.600          43.600
        37.550
  38393109.280
                 201757654.582 7
                        46.550

  38732260.100
                 203539451.173 7
                        46.850

 13  7 19  0  7  0.0000000  0 23G13G04G17G32G10G01G20G31G23G11R03R02
                                R18R04R17R12R19R11R13E11E19S26S20
  22450675.840
  22450672.800   117979153.925 8  91931828.619 6
                        49.350          40.150

  23152759.240
  23152758.020   121668593.730 7  94806708.136 6
                        46.450          38.050

  22420175.860    22420173.020
  22420172.560   117818840.915 8  91806880.573 7
                        50.250          45.000

  21946783.100
  21946779.780   115331280.642 8  89868616.008 7
                        50.250          43.700

  25186464.160
  25186463.720   132355765.673 7 103134360.072 5
                        44.700          31.700

  21980779.200    21980779.480    21980777.740
  21980778.500   115509878.370 8  90007753.596 7  86257433.496 8
                        50.050          47.100          52.150

  20123003.180
  20122998.460   105747245.826 8  82400484.938 8
                        49.700          48.100

  23255237.600    23255233.940
  23255233.040   122207135.040 8  95226345.528 7
                        48.300          43.250

  20883222.500
  20883216.000   109742164.765 8  85513386.738 7
                        50.950          45.550

  24444711.020
  24444708.320   128457909.412 7 100097108.842 5
                        46.050          34.500

  19602048.560
  19602047.940   104931410.850 7  81613353.653 7
                        47.600          45.650

  20900087.200
  20900089.420   111527016.825 8  86743318.135 7
                        49.100          44.950

  20393397.660
  20393402.080   108861378.469 8  84669972.767 7
                        49.750          46.550

  22624008.860
  22624010.620   121150587.863 7  94228260.771 6
                        47.100          41.950

  22944423.940
  22944426.480   122780274.779 7  95495783.051 6
                        46.700          41.600

  21755558.320
  21755561.860   116214320.353 8  90388953.354 6
                        49.600          40.350

  21952010.200
  21952010.600   117428453.349 7  91333243.718 7
                        47.700          42.000

  22967112.160
  22967115.220   122729305.452 7  95456152.948 5
                        44.100          35.350

  23451919.140
  23451924.180   125231942.899 7  97402657.198 6
                        46.000          39.400

  25831231.400                    25831231.440    25831249.820    25831251.020
                 135744075.450 8                 101367347.741 7 104011787.021 7
 102689620.320 7        50.950                          47.800          47.500
        43.000
  28526756.580                    28526759.200    28526777.260    28526778.740
                 149909232.824 8                 111945284.594 6 114865664.257 6
 113405460.862 5        48.800                          39.650          41.400
        35.350
  38392657.360
                 201755279.132 7
                        45.700

  38732272.520
                 203539516.703 7
                        46.150

 13  7 19  0  7 30.0000000  0 23G13G04G17G32G10G01G20G31G23G11R03R02
                                R18R04R17R12R19R11R13E11E19S26S20
  22431913.580
  22431910.680   117880558.679 8  91855001.226 6
                        49.050          39.800

  23134182.160
  23134180.940   121570970.528 7  94730638.179 6
                        46.400          37.200

  22427491.280    22427488.380
  22427487.880   117857283.467 8  91836835.786 7
                        50.000          44.350

  21959758.140
  21959754.860   115399464.964 8  89921746.634 7
                        50.150          44.000

  25166762.740
  25166762.600   132252234.267 7 103053686.370 4
                        43.250          29.950

  21997567.760    21997568.200    21997566.460
  21997567.160   115598103.613 8  90076500.504 7  86323315.943 8
                        49.650          46.600          52.000

  20126220.120
  20126215.320   105764150.815 8  82413657.649 8
                        49.550          48.550

  23262263.860    23262260.120
  23262259.360   122244058.049 8  95255116.689 7
                        48.000          42.700

  20873593.540
  20873587.100   109691564.262 8  85473957.800 7
                        50.700          45.350

  24466561.580
  24466559.000   128572734.743 7 100186583.013 6
                        45.450          36.300

  19598507.020
  19598506.480   104912453.038 7  81598608.703 7
                        47.600          47.300

  20914169.960
  20914172.340   111602165.323 8  86801766.950 7
                        49.000          46.350

  20405103.220
  20405107.660   108923863.290 8  84718572.036 8
                        49.700          48.000

  22606471.560
  22606473.120   121056676.586 7  94155218.761 7
                        47.100          43.600

  22969871.240
  22969873.480   122916446.841 7  95601694.592 7
                        47.150          43.150

  21745789.800
  21745793.300   116162138.649 8  90348367.609 7
                        49.650          42.050

  21936244.980
  21936245.280   117344119.871 7  91267651.069 7
                        47.550          43.650

  22979555.140
  22979558.340   122795797.616 7  95507869.061 6
                        44.050          37.050

  23428262.800
  23428267.160   125105619.160 7  97304405.505 6
                        45.400          40.650

  25848157.440                    25848157.600    25848175.860    25848177.200
                 135833022.921 8                 101433769.499 7 104079941.527 7
 102756908.453 6        50.650                          47.850          46.650
        41.300
  28541155.920                    28541158.460    28541176.380    28541178.360
                 149984901.919 8                 112001790.705 6 114923644.492 6
 113462704.039 5        50.050                          38.600          38.500
        31.600
  38392204.840
                 201752904.061 7
                        45.300

  38732285.220
                 203539583.245 7
                        45.800

 13  7 19  0  8  0.0000000  0 24G13G25G04G17G32G10G01G20G31G23G11R03
                                R02R18R04R17R12R19R11R13E11E19S26S20
  22413205.880
  22413203.140   117782249.890 8  91778397.038 6
                        49.300          40.250

                                  25667897.360
                                                 100726341.95416
                                                        39.150

  23115651.040
  23115649.780   121473589.214 7  94654756.711 6
                        46.750          37.650

  22434908.820    22434905.900
  22434905.380   117896262.921 8  91867209.366 7
                        49.900          45.050

  21972770.540
  21972767.220   115467845.483 8  89975030.145 7
                        50.200          43.700

  25147066.980
  25147067.500   132148737.586 7 102973039.788 5
                        43.150          34.000

  22014419.180    22014419.720    22014417.940
  22014418.680   115686658.767 8  90145504.493 7  86389444.767 8
                        49.750          47.000          51.550

  20129509.860
  20129505.060   105781438.355 8  82427128.457 8
                        49.550          48.650

  23269397.680    23269393.920
  23269393.080   122281546.219 8  95284328.240 7
                        48.100          43.200

  20864048.420
  20864042.140   109641404.663 8  85434872.424 7
                        50.850          45.900

  24488422.620
  24488420.080   128687615.026 7 100276100.013 5
                        45.150          33.950

  19595038.880
  19595038.340   104893887.556 7  81584168.903 7
                        47.750          46.850

  20928293.500
  20928296.000   111677531.190 8  86860384.843 7
                        49.050          45.450

  20416944.900
  20416949.380   108987074.947 8  84767736.632 7
                        49.450          47.650

  22588964.920
  22588966.540   120962929.637 7  94082304.569 7
                        47.750          42.550

  22995344.580
  22995346.700   123052758.793 7  95707714.931 6
                        46.250          41.800

  21736157.220
  21736160.640   116110683.245 8  90308346.772 6
                        49.800          41.650

  21920595.680
  21920596.000   117260406.492 7  91202540.702 7
                        47.400          42.650

  22992127.020
  22992130.420   122862978.479 7  95560120.829 6
                        44.200          36.200

  23404634.780
  23404639.040   124979448.472 7  97206272.881 6
                        45.650          40.350

  25865111.080                    25865111.440    25865129.540    25865130.960
                 135922115.345 8                 101500299.501 7 104148207.100 7
 102824306.239 7        50.650                          46.850          47.550
        42.900
  28555553.320                    28555556.740    28555574.180
                 150060559.148 8                 112058287.987 4 114981615.618 5
                        49.450                          29.550          33.300

  38391752.860
                 201750527.684 7
                        45.550

  38732298.140
                 203539649.364 7
                        45.900

 13  7 19  0  8 30.0000000  0 24G13G25G04G17G32G10G01G20G31G23G11R03
                                R02R18R04R17R12R19R11R13E11E19S26S20
  22394552.940
  22394550.340   117684228.743 8  91702016.998 6
                        49.200          39.800

  25665870.580    25665870.860    25665870.640
  25665868.500   134875061.41516 105097435.35715 100718383.862 6
                        36.650          34.400          41.650

  23097166.400
  23097165.100   121376451.941 7  94579065.386 6
                        46.950          37.400

  22442428.060    22442425.200
  22442424.620   117935776.597 8  91897999.221 7
                        49.950          44.650

  21985820.040
  21985816.680   115536420.787 8  90028465.434 7
                        50.200          43.700

  25127378.880
  25127379.100   132045275.860 7 102892420.352 5
                        45.050          33.150

  22031332.940    22031333.540    22031331.860
  22031332.520   115775541.648 8  90214763.846 7  86455818.302 8
                        49.800          46.600          51.650

  20132872.240
  20132867.540   105799108.018 8  82440897.025 8
                        49.550          48.500

  23276638.660    23276634.880
  23276634.100   122319597.684 8  95313978.710 7
                        48.350          43.000

  20854587.240
  20854581.000   109591686.207 8  85396130.797 7
                        50.650          45.700

  24510293.620
  24510291.160   128802547.773 7 100365657.876 5
                        44.800          34.050

  19591643.920
  19591643.300   104875713.757 7  81570033.733 7
                        47.600          45.700

  20942457.420
  20942459.900   111753112.662 8  86919170.409 7
                        48.950          44.100

  20428922.080
  20428926.580   109051009.945 8  84817463.825 7
                        49.600          46.400

  22571489.100
  22571490.660   120869347.203 7  94009518.306 6
                        47.900          40.600

  23020843.120
  23020845.380   123189206.310 7  95813840.709 6
                        45.700          39.450

  21726661.000
  21726664.140   116059956.177 8  90268892.407 6
                        49.400          40.100

  21905062.720
  21905063.000   117177316.199 7  91137914.969 6
                        47.700          41.350

  23004827.240
  23004830.580   122930844.590 7  95612905.570 5
                        44.000          35.250

  23381036.360
  23381040.920   124853434.586 7  97108262.204 6
                        45.900          39.450

  25882091.960                    25882092.340    25882110.360    25882111.880
                 136011350.385 8                 101566935.994 7 104216581.946 7
 102891811.912 6        50.400                          47.000          46.600
        41.650
  28569948.260                    28569952.040    28569969.160
                 150136204.152 8                 112114776.284 5 115039577.529 5
                        48.600                          34.400          33.900

  38391300.000
                 201748148.385 7
                        45.350

  38732310.260
                 203539713.021 7
                        45.750

 13  7 19  0  9  0.0000000  0 24G13G25G04G17G32G10G01G20G31G23G11R03
                                R02R18R04R17R12R19R11R13E11E19S26S20
  22375955.100
  22375952.460   117586496.505 8  91625862.081 6
                        49.650          39.200

  25663944.640    25663944.740    25663945.380
  25663943.200   134864943.853 7 105089561.50016 100710828.483 7
                        43.500          37.650          43.250

  23078728.600
  23078727.240   121279560.834 7  94503565.888 6
                        47.400          36.500

  22450048.580    22450045.720
  22450045.180   117975822.498 8  91929203.784 7
                        50.200          44.800

  21998906.260
  21998902.900   115605189.455 8  90082051.400 7
                        50.300          43.550

  25107697.720
  25107697.640   131941849.365 7 102811828.391 5
                        44.100          34.150

  22048308.720    22048309.360    22048307.680
  22048308.340   115864750.093 8  90284276.893 7  86522434.974 8
                        49.850          46.600          50.650

  20136307.180
  20136302.400   105817158.734 8  82454962.518 8
                        49.850          48.300

  23283986.480    23283982.720
  23283981.940   122358210.765 8  95344066.820 7
                        48.450          42.750

  20845210.000
  20845203.900   109542409.408 8  85357733.322 7
                        50.700          45.900

  24532174.100
  24532171.780   128917530.364 7 100455254.616 5
                        44.500          32.150

  19588321.840
  19588321.340   104857930.948 7  81556202.679 7
                        47.650          46.050

  20956661.320
  20956663.760   111828907.914 8  86978122.251 7
                        48.950          44.250

  20441034.120
  20441038.660   109115665.114 8  84867751.158 7
                        49.250          46.800

  22554043.960
  22554045.300   120775929.771 7  93936860.389 6
                        47.700          40.500

  23046366.060
  23046368.260   123325784.876 7  95920068.413 6
                        45.050          38.900

  21717301.480
  21717304.420   116009959.678 8  90230006.274 6
                        49.600          40.350

  21889646.860
  21889647.060   117094852.035 7  91073776.208 6
                        47.400          41.900

  23017655.020
  23017658.320   122999392.275 7  95666220.427 5
                        44.300          35.400

  23357468.240
  23357473.100   124727582.149 7  97010377.103 6
                        45.250          40.150

  25899099.540                    25899099.960    25899118.000    25899119.560
                 136100725.755 8                 101633677.279 7 104285064.316 7
 102959423.738 6        50.550                          45.350          46.800
        41.900
  28584340.280                    28584343.780    28584360.720
                 150211836.143 8                 112171254.692 5 115097529.238 6
                        48.050                          34.300          37.800

  38390846.380
                 201745764.972 7
                        45.750

  38732321.180
